order_id,order_date,customer_id,city,address,customer_latitude,customer_longitude,sku,category,qty,unit_price_rp,sales_rp,weight_kg
ORD000000,2025-11-09,CUST22657,Malang,Gang Tubagus Ismail No. 653,-7.971039,112.651262,SKU-A,Powder,12,25000,300000,6.0
ORD000001,2026-02-21,CUST10837,Surabaya,Gg. Cempaka No. 8,-7.234315,112.739353,SKU-C,Snack,13,15000,195000,2.6
ORD000002,2025-12-01,CUST22749,Jakarta,Gang Jamika No. 78,-6.255628,106.877953,SKU-D,PersonalCare,30,85000,2550000,45.0
ORD000003,2026-04-14,CUST01545,Bandung,Jalan Kendalsari No. 44,-6.940037,107.646744,SKU-B,Beverage,10,55000,550000,12.0
ORD000004,2026-02-01,CUST28429,Tangerang,Gg. Kebonjati No. 8,-6.154982,106.59027,SKU-C,Snack,6,15000,90000,1.2
ORD000005,2026-03-20,CUST00603,Kediri,Jalan Cempaka No. 023,-7.823622,112.060066,SKU-D,PersonalCare,19,85000,1615000,28.5
ORD000006,2025-11-25,CUST26919,Surabaya,Jalan PHH. Mustofa No. 656,-7.29844,112.706121,SKU-B,Beverage,19,55000,1045000,22.8
ORD000007,2025-12-16,CUST08946,Bandung,Jalan Ciwastra No. 35,-6.93626,107.590645,SKU-C,Snack,20,15000,300000,4.0
ORD000008,2025-12-07,CUST24006,Solo,Jl. Rajawali Barat No. 029,-7.569816,110.837186,SKU-C,Snack,11,15000,165000,2.2
ORD000009,2025-12-11,CUST11742,Yogyakarta,Jl. Raya Ujungberung No. 868,-7.787171,110.331376,SKU-B,Beverage,11,55000,605000,13.2
ORD000010,2026-04-12,CUST08842,Bogor,Jl. Wonoayu No. 65,-6.622053,106.778078,SKU-C,Snack,22,15000,330000,4.4
ORD000011,2025-12-15,CUST21794,Depok,Jl. Kendalsari No. 95,-6.426436,106.817768,SKU-C,Snack,28,15000,420000,5.6
ORD000012,2026-02-25,CUST07103,Surabaya,Gg. Gedebage Selatan No. 2,-7.260384,112.772833,SKU-D,PersonalCare,15,85000,1275000,22.5
ORD000013,2025-12-03,CUST23351,Semarang,Gang Antapani Lama No. 48,-6.928951,110.451249,SKU-C,Snack,9,15000,135000,1.8
ORD000014,2026-02-15,CUST06457,Jember,Jl. Asia Afrika No. 67,-8.157694,113.709558,SKU-D,PersonalCare,13,85000,1105000,19.5
ORD000015,2026-04-30,CUST28429,Tangerang,Gg. Kebonjati No. 8,-6.154982,106.59027,SKU-B,Beverage,29,55000,1595000,34.8
ORD000016,2026-02-20,CUST25765,Jakarta,Jl. Suniaraja No. 0,-6.214489,106.893269,SKU-D,PersonalCare,12,85000,1020000,18.0
ORD000017,2025-11-21,CUST18657,Semarang,Jalan Astana Anyar No. 9,-6.939565,110.386918,SKU-D,PersonalCare,23,85000,1955000,34.5
ORD000018,2026-01-03,CUST13763,Malang,Jalan Bangka Raya No. 6,-7.952276,112.649278,SKU-D,PersonalCare,6,85000,510000,9.0
ORD000019,2026-04-18,CUST21271,Semarang,Jl. Raya Ujungberung No. 4,-7.011074,110.442269,SKU-C,Snack,32,15000,480000,6.4
ORD000020,2026-04-19,CUST11157,Bandung,Jalan Medokan Ayu No. 3,-6.922765,107.636134,SKU-A,Powder,30,25000,750000,15.0
ORD000021,2025-11-12,CUST25679,Yogyakarta,Jalan Rajiman No. 10,-7.751344,110.351197,SKU-B,Beverage,12,55000,660000,14.4
ORD000022,2026-04-16,CUST15781,Bekasi,Gang Cikutra Timur No. 0,-6.223072,107.009134,SKU-D,PersonalCare,24,85000,2040000,36.0
ORD000023,2026-03-06,CUST04053,Jakarta,Gang Ir. H. Djuanda No. 1,-6.200031,106.867989,SKU-B,Beverage,26,55000,1430000,31.2
ORD000024,2025-12-25,CUST29846,Semarang,Jl. Jamika No. 0,-6.968472,110.391648,SKU-B,Beverage,6,55000,330000,7.2
ORD000025,2026-02-14,CUST25025,Kediri,Jl. Suniaraja No. 4,-7.893622,111.97306,SKU-D,PersonalCare,17,85000,1445000,25.5
ORD000026,2026-04-06,CUST29747,Depok,Jalan H.J Maemunah No. 6,-6.403019,106.800229,SKU-C,Snack,21,15000,315000,4.2
ORD000027,2025-11-17,CUST25610,Semarang,Gg. Rumah Sakit No. 9,-6.9627,110.373154,SKU-B,Beverage,7,55000,385000,8.4
ORD000028,2026-02-21,CUST27770,Tangerang,Gang Sentot Alibasa No. 438,-6.152713,106.679867,SKU-B,Beverage,18,55000,990000,21.6
ORD000029,2025-11-26,CUST14186,Jakarta,Jl. PHH. Mustofa No. 807,-6.197126,106.826023,SKU-A,Powder,13,25000,325000,6.5
ORD000030,2026-03-12,CUST09737,Tangerang,Jl. Cikapayang No. 10,-6.209048,106.614807,SKU-C,Snack,8,15000,120000,1.6
ORD000031,2026-01-24,CUST08291,Tangerang,Jl. Suniaraja No. 6,-6.215519,106.6507,SKU-A,Powder,15,25000,375000,7.5
ORD000032,2026-04-14,CUST06403,Bogor,Jl. Sentot Alibasa No. 83,-6.564087,106.787075,SKU-D,PersonalCare,22,85000,1870000,33.0
ORD000033,2026-03-01,CUST24905,Bekasi,Jl. Moch. Ramdan No. 862,-6.212635,107.0027,SKU-A,Powder,35,25000,875000,17.5
ORD000034,2025-11-27,CUST20174,Jakarta,Jl. Astana Anyar No. 361,-6.251044,106.878079,SKU-A,Powder,11,25000,275000,5.5
ORD000035,2025-11-02,CUST24796,Bogor,Gang Otto Iskandardinata No. 6,-6.580249,106.775234,SKU-D,PersonalCare,24,85000,2040000,36.0
ORD000036,2025-12-25,CUST06944,Jakarta,Jl. Rajiman No. 35,-6.184719,106.845522,SKU-D,PersonalCare,6,85000,510000,9.0
ORD000037,2026-02-09,CUST18918,Surabaya,Jalan Rajiman No. 3,-7.296235,112.76278,SKU-C,Snack,8,15000,120000,1.6
ORD000038,2026-04-21,CUST15137,Jakarta,Jl. Pelajar Pejuang No. 3,-6.21058,106.875066,SKU-A,Powder,27,25000,675000,13.5
ORD000039,2025-12-05,CUST18960,Kediri,Gang Ahmad Yani No. 89,-7.812267,112.010563,SKU-D,PersonalCare,25,85000,2125000,37.5
ORD000040,2026-01-23,CUST26235,Solo,Gang Pelajar Pejuang No. 45,-7.618858,110.829925,SKU-A,Powder,9,25000,225000,4.5
ORD000041,2026-02-09,CUST13522,Bandung,Gg. Cihampelas No. 8,-6.95633,107.601813,SKU-C,Snack,23,15000,345000,4.6
ORD000042,2026-03-08,CUST28648,Malang,Jl. BKR No. 4,-7.964905,112.587138,SKU-A,Powder,22,25000,550000,11.0
ORD000043,2026-01-21,CUST13910,Yogyakarta,Jl. Jamika No. 901,-7.782143,110.354948,SKU-A,Powder,14,25000,350000,7.0
ORD000044,2025-11-17,CUST08857,Bandung,Gg. Ahmad Yani No. 1,-6.947092,107.593898,SKU-A,Powder,11,25000,275000,5.5
ORD000045,2026-03-12,CUST14794,Jakarta,Gg. Kapten Muslihat No. 5,-6.251625,106.853682,SKU-D,PersonalCare,10,85000,850000,15.0
ORD000046,2025-11-07,CUST05972,Jakarta,Jalan Rajawali Timur No. 13,-6.244561,106.849949,SKU-A,Powder,23,25000,575000,11.5
ORD000047,2026-02-20,CUST16999,Kediri,Gg. Antapani Lama No. 001,-7.881566,112.013924,SKU-A,Powder,12,25000,300000,6.0
ORD000048,2025-12-17,CUST06798,Semarang,Gang Tebet Barat Dalam No. 3,-7.00435,110.45167,SKU-D,PersonalCare,13,85000,1105000,19.5
ORD000049,2026-02-19,CUST24498,Bekasi,Gg. Gardujati No. 5,-6.261057,106.984322,SKU-B,Beverage,25,55000,1375000,30.0
ORD000050,2026-02-13,CUST17678,Bekasi,Jalan R.E Martadinata No. 19,-6.261968,106.999878,SKU-D,PersonalCare,17,85000,1445000,25.5
ORD000051,2026-02-22,CUST20627,Bekasi,Gang Moch. Toha No. 73,-6.227572,106.984168,SKU-D,PersonalCare,16,85000,1360000,24.0
ORD000052,2026-02-22,CUST00126,Surabaya,Gang Yos Sudarso No. 2,-7.240811,112.737529,SKU-C,Snack,15,15000,225000,3.0
ORD000053,2026-04-07,CUST15275,Semarang,Jl. Rumah Sakit No. 72,-7.003436,110.375629,SKU-C,Snack,15,15000,225000,3.0
ORD000054,2026-02-06,CUST27405,Semarang,Gg. H.J Maemunah No. 64,-6.994819,110.397605,SKU-C,Snack,10,15000,150000,2.0
ORD000055,2025-12-13,CUST26085,Bandung,Jalan Ahmad Yani No. 907,-6.878002,107.581309,SKU-C,Snack,18,15000,270000,3.6
ORD000056,2026-02-20,CUST18377,Serang,Jl. Surapati No. 0,-6.093577,106.145029,SKU-A,Powder,11,25000,275000,5.5
ORD000057,2026-01-31,CUST14875,Depok,Gang Rajawali Timur No. 8,-6.439512,106.828761,SKU-C,Snack,23,15000,345000,4.6
ORD000058,2025-11-12,CUST21077,Surabaya,Jl. Jakarta No. 9,-7.277099,112.720957,SKU-A,Powder,15,25000,375000,7.5
ORD000059,2026-03-16,CUST29604,Solo,Jalan Antapani Lama No. 9,-7.556187,110.783475,SKU-C,Snack,24,15000,360000,4.8
ORD000060,2026-03-25,CUST13801,Jakarta,Gg. Siliwangi No. 7,-6.252863,106.845299,SKU-A,Powder,8,25000,200000,4.0
ORD000061,2025-11-02,CUST07586,Malang,Gg. Sentot Alibasa No. 216,-7.979374,112.609664,SKU-A,Powder,13,25000,325000,6.5
ORD000062,2026-01-14,CUST26589,Tangerang,Gang R.E Martadinata No. 8,-6.199506,106.588817,SKU-C,Snack,7,15000,105000,1.4
ORD000063,2025-12-17,CUST29674,Yogyakarta,Jl. Gardujati No. 8,-7.778425,110.407633,SKU-B,Beverage,15,55000,825000,18.0
ORD000064,2025-12-27,CUST13350,Surabaya,Gang Rajawali Timur No. 866,-7.274631,112.787946,SKU-B,Beverage,29,55000,1595000,34.8
ORD000065,2025-11-23,CUST18551,Kediri,Jl. Jend. Sudirman No. 81,-7.858086,111.99837,SKU-A,Powder,22,25000,550000,11.0
ORD000066,2026-02-02,CUST17904,Jakarta,Gang Gedebage Selatan No. 938,-6.240274,106.800302,SKU-D,PersonalCare,17,85000,1445000,25.5
ORD000067,2026-01-20,CUST09926,Cirebon,Gg. Raya Ujungberung No. 74,-6.740196,108.562273,SKU-C,Snack,16,15000,240000,3.2
ORD000068,2026-02-06,CUST24071,Bogor,Gg. Pasirkoja No. 469,-6.564096,106.832798,SKU-B,Beverage,16,55000,880000,19.2
ORD000069,2026-02-24,CUST00631,Jakarta,Gg. Laswi No. 392,-6.175119,106.856552,SKU-B,Beverage,11,55000,605000,13.2
ORD000070,2026-01-16,CUST21265,Semarang,Gang Cihampelas No. 32,-6.944009,110.421256,SKU-A,Powder,15,25000,375000,7.5
ORD000071,2025-11-29,CUST26104,Malang,Gg. Dr. Djunjunan No. 184,-7.94395,112.615491,SKU-A,Powder,4,25000,100000,2.0
ORD000072,2026-01-04,CUST02640,Surabaya,Gg. Suryakencana No. 856,-7.301748,112.715625,SKU-D,PersonalCare,5,85000,425000,7.5
ORD000073,2025-11-26,CUST02496,Jakarta,Gg. Moch. Ramdan No. 60,-6.25801,106.871859,SKU-D,PersonalCare,10,85000,850000,15.0
ORD000074,2026-04-21,CUST22396,Malang,Gg. Abdul Muis No. 4,-7.942548,112.67555,SKU-A,Powder,11,25000,275000,5.5
ORD000075,2025-11-15,CUST24201,Yogyakarta,Gang Kendalsari No. 6,-7.75485,110.344406,SKU-D,PersonalCare,13,85000,1105000,19.5
ORD000076,2026-04-18,CUST15526,Serang,Gg. HOS. Cokroaminoto No. 4,-6.088943,106.110978,SKU-D,PersonalCare,33,85000,2805000,49.5
ORD000077,2026-04-30,CUST12427,Tangerang,Gg. Dipenogoro No. 55,-6.182556,106.666081,SKU-C,Snack,8,15000,120000,1.6
ORD000078,2026-04-12,CUST10922,Semarang,Gg. Gardujati No. 318,-6.928889,110.422756,SKU-B,Beverage,33,55000,1815000,39.6
ORD000079,2025-12-19,CUST13671,Bekasi,Gg. Lembong No. 5,-6.230107,106.961359,SKU-D,PersonalCare,24,85000,2040000,36.0
ORD000080,2026-03-15,CUST07805,Depok,Gang Jayawijaya No. 5,-6.391572,106.770969,SKU-C,Snack,11,15000,165000,2.2
ORD000081,2026-03-31,CUST15033,Solo,Jl. Sukajadi No. 0,-7.590767,110.820512,SKU-B,Beverage,27,55000,1485000,32.4
ORD000082,2026-02-13,CUST14402,Kediri,Jalan Peta No. 6,-7.893851,111.971821,SKU-C,Snack,23,15000,345000,4.6
ORD000083,2026-03-21,CUST11929,Surabaya,Jl. Surapati No. 47,-7.25338,112.715724,SKU-B,Beverage,13,55000,715000,15.6
ORD000084,2026-01-10,CUST17010,Malang,Gang Sentot Alibasa No. 372,-7.943816,112.625112,SKU-B,Beverage,12,55000,660000,14.4
ORD000085,2026-01-13,CUST09171,Yogyakarta,Gang Gedebage Selatan No. 1,-7.757574,110.416311,SKU-A,Powder,14,25000,350000,7.0
ORD000086,2026-02-22,CUST19921,Solo,Gang Sukajadi No. 2,-7.618083,110.827809,SKU-D,PersonalCare,18,85000,1530000,27.0
ORD000087,2025-12-10,CUST16129,Semarang,Jl. BKR No. 75,-6.985199,110.382102,SKU-A,Powder,19,25000,475000,9.5
ORD000088,2025-12-19,CUST29540,Bekasi,Gg. Rajawali Timur No. 687,-6.196282,106.949266,SKU-A,Powder,22,25000,550000,11.0
ORD000089,2026-03-25,CUST05245,Yogyakarta,Jalan K.H. Wahid Hasyim No. 40,-7.788354,110.370965,SKU-C,Snack,23,15000,345000,4.6
ORD000090,2026-02-01,CUST13794,Surabaya,Gg. Sukabumi No. 68,-7.22867,112.766251,SKU-C,Snack,16,15000,240000,3.2
ORD000091,2026-01-27,CUST16598,Bekasi,Jl. Cihampelas No. 18,-6.202599,106.944701,SKU-D,PersonalCare,9,85000,765000,13.5
ORD000092,2026-01-27,CUST16543,Surabaya,Gg. Tubagus Ismail No. 6,-7.300684,112.78756,SKU-C,Snack,25,15000,375000,5.0
ORD000093,2026-01-04,CUST08538,Jakarta,Jl. Cikutra Barat No. 8,-6.230194,106.875353,SKU-B,Beverage,22,55000,1210000,26.4
ORD000094,2025-12-17,CUST23240,Cirebon,Jl. Ahmad Yani No. 570,-6.705922,108.512467,SKU-D,PersonalCare,34,85000,2890000,51.0
ORD000095,2025-12-14,CUST23524,Jakarta,Gg. Erlangga No. 72,-6.247868,106.83558,SKU-D,PersonalCare,11,85000,935000,16.5
ORD000096,2026-02-09,CUST07381,Surabaya,Jl. Surapati No. 6,-7.233844,112.765576,SKU-D,PersonalCare,16,85000,1360000,24.0
ORD000097,2025-12-11,CUST23061,Jakarta,Jalan Tebet Barat Dalam No. 46,-6.201884,106.814377,SKU-C,Snack,27,15000,405000,5.4
ORD000098,2026-02-24,CUST06547,Cirebon,Gg. Sukajadi No. 666,-6.708832,108.595626,SKU-D,PersonalCare,12,85000,1020000,18.0
ORD000099,2025-12-23,CUST19829,Tangerang,Jl. Kutai No. 057,-6.196597,106.635811,SKU-A,Powder,27,25000,675000,13.5
ORD000100,2026-01-15,CUST19213,Kediri,Jalan Cempaka No. 8,-7.888116,112.027393,SKU-C,Snack,6,15000,90000,1.2
ORD000101,2026-04-16,CUST05199,Jakarta,Jl. Cikapayang No. 0,-6.235304,106.863917,SKU-D,PersonalCare,30,85000,2550000,45.0
ORD000102,2025-12-24,CUST15249,Bandung,Gg. M.T Haryono No. 5,-6.942827,107.615308,SKU-D,PersonalCare,9,85000,765000,13.5
ORD000103,2026-03-26,CUST10176,Malang,Jl. Kiaracondong No. 574,-8.012643,112.631606,SKU-B,Beverage,28,55000,1540000,33.6
ORD000104,2025-12-06,CUST07954,Serang,Gg. Ir. H. Djuanda No. 920,-6.150566,106.183071,SKU-C,Snack,21,15000,315000,4.2
ORD000105,2026-01-15,CUST16143,Yogyakarta,Jl. Asia Afrika No. 6,-7.763724,110.340547,SKU-D,PersonalCare,18,85000,1530000,27.0
ORD000106,2026-02-16,CUST18027,Tangerang,Jl. M.H Thamrin No. 466,-6.142578,106.637148,SKU-A,Powder,4,25000,100000,2.0
ORD000107,2026-04-20,CUST06642,Jakarta,Jalan Raya Setiabudhi No. 33,-6.175594,106.887423,SKU-B,Beverage,26,55000,1430000,31.2
ORD000108,2026-01-26,CUST08908,Jakarta,Gg. Stasiun Wonokromo No. 206,-6.16196,106.890409,SKU-C,Snack,10,15000,150000,2.0
ORD000109,2026-02-25,CUST23521,Yogyakarta,Jl. Dipatiukur No. 83,-7.814539,110.379245,SKU-A,Powder,10,25000,250000,5.0
ORD000110,2025-11-16,CUST15640,Jakarta,Gg. Kebonjati No. 424,-6.206064,106.856816,SKU-A,Powder,17,25000,425000,8.5
ORD000111,2026-01-26,CUST28546,Bogor,Jl. Monginsidi No. 17,-6.615318,106.775307,SKU-D,PersonalCare,24,85000,2040000,36.0
ORD000112,2025-12-07,CUST13663,Bogor,Jl. Cikutra Barat No. 192,-6.573589,106.770569,SKU-A,Powder,15,25000,375000,7.5
ORD000113,2026-01-25,CUST27043,Surabaya,Gang Kutisari Selatan No. 787,-7.302094,112.711866,SKU-D,PersonalCare,6,85000,510000,9.0
ORD000114,2025-11-09,CUST21326,Solo,Gg. Bangka Raya No. 0,-7.56205,110.853897,SKU-B,Beverage,20,55000,1100000,24.0
ORD000115,2026-01-11,CUST03927,Tangerang,Gg. M.T Haryono No. 336,-6.174254,106.628385,SKU-C,Snack,7,15000,105000,1.4
ORD000116,2026-01-26,CUST10216,Surabaya,Jalan KH Amin Jasuta No. 7,-7.302437,112.707782,SKU-A,Powder,21,25000,525000,10.5
ORD000117,2026-04-03,CUST11567,Yogyakarta,Jl. Antapani Lama No. 54,-7.808212,110.418328,SKU-C,Snack,35,15000,525000,7.0
ORD000118,2026-01-16,CUST27387,Tangerang,Jalan Ciwastra No. 289,-6.221022,106.593503,SKU-C,Snack,23,15000,345000,4.6
ORD000119,2026-02-11,CUST12270,Depok,Gang HOS. Cokroaminoto No. 051,-6.359406,106.79247,SKU-A,Powder,10,25000,250000,5.0
ORD000120,2026-03-10,CUST09252,Bandung,Gang Joyoboyo No. 17,-6.933417,107.642379,SKU-C,Snack,30,15000,450000,6.0
ORD000121,2026-04-19,CUST19036,Bandung,Jl. Ahmad Dahlan No. 98,-6.912813,107.570654,SKU-A,Powder,28,25000,700000,14.0
ORD000122,2026-02-08,CUST13942,Jakarta,Jalan Jakarta No. 4,-6.181509,106.862756,SKU-A,Powder,17,25000,425000,8.5
ORD000123,2026-03-05,CUST12501,Jember,Jalan H.J Maemunah No. 03,-8.203363,113.674072,SKU-A,Powder,11,25000,275000,5.5
ORD000124,2025-12-14,CUST19602,Semarang,Jl. Ahmad Yani No. 8,-6.988432,110.434672,SKU-C,Snack,14,15000,210000,2.8
ORD000125,2026-04-08,CUST08096,Surabaya,Jalan BKR No. 62,-7.252837,112.72082,SKU-A,Powder,35,25000,875000,17.5
ORD000126,2026-01-30,CUST23160,Bogor,Jalan Rajawali Barat No. 8,-6.567979,106.787144,SKU-A,Powder,24,25000,600000,12.0
ORD000127,2026-03-08,CUST21056,Tangerang,Jl. Jend. Sudirman No. 08,-6.153947,106.659318,SKU-C,Snack,13,15000,195000,2.6
ORD000128,2026-01-11,CUST22021,Kediri,Jalan Indragiri No. 8,-7.840209,112.018556,SKU-C,Snack,24,15000,360000,4.8
ORD000129,2026-01-20,CUST29984,Semarang,Jalan Jend. A. Yani No. 97,-6.954585,110.451464,SKU-B,Beverage,11,55000,605000,13.2
ORD000130,2025-12-26,CUST00009,Serang,Jalan Raya Setiabudhi No. 7,-6.104902,106.169052,SKU-C,Snack,11,15000,165000,2.2
ORD000131,2025-11-30,CUST17118,Surabaya,Jl. Gedebage Selatan No. 2,-7.285832,112.77249,SKU-A,Powder,21,25000,525000,10.5
ORD000132,2026-04-13,CUST03976,Surabaya,Jalan Wonoayu No. 12,-7.286082,112.721156,SKU-D,PersonalCare,30,85000,2550000,45.0
ORD000133,2025-11-12,CUST09079,Depok,Gg. Stasiun Wonokromo No. 36,-6.377912,106.816139,SKU-C,Snack,9,15000,135000,1.8
ORD000134,2025-12-27,CUST18882,Semarang,Gang Pasir Koja No. 89,-6.95289,110.446683,SKU-A,Powder,25,25000,625000,12.5
ORD000135,2025-11-04,CUST09720,Jakarta,Jalan Cihampelas No. 18,-6.228072,106.859634,SKU-C,Snack,4,15000,60000,0.8
ORD000136,2026-03-19,CUST14571,Jakarta,Jalan Cikapayang No. 70,-6.194671,106.854745,SKU-B,Beverage,35,55000,1925000,42.0
ORD000137,2026-04-12,CUST09523,Solo,Jl. Rawamangun No. 295,-7.556076,110.847024,SKU-D,PersonalCare,20,85000,1700000,30.0
ORD000138,2026-02-10,CUST02910,Bekasi,Jalan Medokan Ayu No. 65,-6.288242,107.011905,SKU-D,PersonalCare,10,85000,850000,15.0
ORD000139,2026-03-05,CUST27674,Malang,Gg. Tubagus Ismail No. 136,-8.008416,112.597653,SKU-A,Powder,10,25000,250000,5.0
ORD000140,2026-03-05,CUST10355,Kediri,Gang Tubagus Ismail No. 608,-7.849342,112.001141,SKU-B,Beverage,13,55000,715000,15.6
ORD000141,2025-12-16,CUST10667,Malang,Jalan Jamika No. 00,-7.971321,112.592375,SKU-D,PersonalCare,10,85000,850000,15.0
ORD000142,2025-11-12,CUST17295,Bandung,Jl. Sadang Serang No. 778,-6.927112,107.667179,SKU-C,Snack,8,15000,120000,1.6
ORD000143,2026-02-22,CUST19496,Bandung,Jalan KH Amin Jasuta No. 9,-6.926668,107.659027,SKU-A,Powder,19,25000,475000,9.5
ORD000144,2026-04-06,CUST23261,Tangerang,Jalan Kapten Muslihat No. 1,-6.195292,106.6737,SKU-C,Snack,20,15000,300000,4.0
ORD000145,2025-12-12,CUST21846,Surabaya,Jl. W.R. Supratman No. 0,-7.297288,112.75317,SKU-B,Beverage,13,55000,715000,15.6
ORD000146,2026-03-06,CUST07908,Yogyakarta,Jl. Suniaraja No. 293,-7.808554,110.40799,SKU-D,PersonalCare,37,85000,3145000,55.5
ORD000147,2026-02-26,CUST18494,Bandung,Jl. Cikutra Timur No. 01,-6.934301,107.665265,SKU-C,Snack,16,15000,240000,3.2
ORD000148,2026-02-21,CUST21189,Surabaya,Jl. Kiaracondong No. 10,-7.23605,112.746056,SKU-A,Powder,10,25000,250000,5.0
ORD000149,2026-02-28,CUST23311,Surabaya,Gang Jend. Sudirman No. 7,-7.213265,112.779835,SKU-C,Snack,4,15000,60000,0.8
ORD000150,2026-02-20,CUST15502,Malang,Gang Kutisari Selatan No. 44,-8.010677,112.662178,SKU-A,Powder,14,25000,350000,7.0
ORD000151,2025-11-27,CUST19817,Yogyakarta,Jalan Kutai No. 4,-7.828045,110.360183,SKU-D,PersonalCare,13,85000,1105000,19.5
ORD000152,2026-02-13,CUST20733,Depok,Gang Kebonjati No. 9,-6.359808,106.806696,SKU-B,Beverage,23,55000,1265000,27.6
ORD000153,2026-02-25,CUST23487,Yogyakarta,Gang Otto Iskandardinata No. 65,-7.8367,110.333002,SKU-B,Beverage,23,55000,1265000,27.6
ORD000154,2026-01-24,CUST21153,Cirebon,Jl. Yos Sudarso No. 1,-6.755084,108.599165,SKU-C,Snack,5,15000,75000,1.0
ORD000155,2025-11-22,CUST21059,Solo,Jl. Raya Ujungberung No. 550,-7.56537,110.802692,SKU-D,PersonalCare,18,85000,1530000,27.0
ORD000156,2026-03-14,CUST13892,Depok,Jl. Jakarta No. 9,-6.403816,106.786861,SKU-A,Powder,29,25000,725000,14.5
ORD000157,2026-03-10,CUST13655,Semarang,Jl. HOS. Cokroaminoto No. 87,-7.011841,110.408116,SKU-B,Beverage,10,55000,550000,12.0
ORD000158,2025-12-23,CUST02568,Tangerang,Jl. Dipenogoro No. 412,-6.185431,106.586587,SKU-B,Beverage,21,55000,1155000,25.2
ORD000159,2026-03-18,CUST15121,Kediri,Jalan M.H Thamrin No. 4,-7.809367,112.053129,SKU-D,PersonalCare,32,85000,2720000,48.0
ORD000160,2026-03-10,CUST11162,Bandung,Gang Otto Iskandardinata No. 615,-6.915091,107.630511,SKU-B,Beverage,31,55000,1705000,37.2
ORD000161,2026-03-18,CUST21555,Tangerang,Gang Kapten Muslihat No. 3,-6.216048,106.587433,SKU-D,PersonalCare,15,85000,1275000,22.5
ORD000162,2026-03-27,CUST15923,Cirebon,Gang Lembong No. 2,-6.755069,108.511327,SKU-A,Powder,16,25000,400000,8.0
ORD000163,2025-11-14,CUST11482,Bogor,Jl. Sadang Serang No. 86,-6.625982,106.80102,SKU-C,Snack,12,15000,180000,2.4
ORD000164,2026-03-10,CUST27783,Yogyakarta,Jalan Rumah Sakit No. 403,-7.774452,110.393332,SKU-D,PersonalCare,10,85000,850000,15.0
ORD000165,2025-12-08,CUST12954,Surabaya,Gg. Laswi No. 03,-7.244665,112.769352,SKU-C,Snack,25,15000,375000,5.0
ORD000166,2026-04-01,CUST28543,Tangerang,Jalan Abdul Muis No. 7,-6.214302,106.651769,SKU-A,Powder,16,25000,400000,8.0
ORD000167,2026-03-26,CUST26518,Yogyakarta,Jalan Ahmad Dahlan No. 5,-7.825272,110.414607,SKU-A,Powder,32,25000,800000,16.0
ORD000168,2026-01-08,CUST10303,Malang,Gg. Cikutra Barat No. 564,-7.931245,112.67695,SKU-B,Beverage,12,55000,660000,14.4
ORD000169,2025-12-02,CUST13227,Yogyakarta,Jalan Ciumbuleuit No. 68,-7.836037,110.379729,SKU-C,Snack,12,15000,180000,2.4
ORD000170,2025-12-06,CUST24533,Malang,Gang Kapten Muslihat No. 65,-7.93666,112.673308,SKU-B,Beverage,27,55000,1485000,32.4
ORD000171,2025-12-18,CUST06984,Solo,Gang Pasteur No. 57,-7.583483,110.864644,SKU-B,Beverage,24,55000,1320000,28.8
ORD000172,2026-04-17,CUST28954,Bandung,Jl. Waringin No. 245,-6.917355,107.575187,SKU-A,Powder,24,25000,600000,12.0
ORD000173,2025-12-26,CUST25215,Yogyakarta,Jl. Moch. Ramdan No. 2,-7.774056,110.416107,SKU-B,Beverage,26,55000,1430000,31.2
ORD000174,2025-11-25,CUST21687,Malang,Gang Indragiri No. 1,-7.9541,112.652828,SKU-B,Beverage,12,55000,660000,14.4
ORD000175,2026-02-26,CUST20237,Kediri,Jl. Gardujati No. 47,-7.823134,112.061576,SKU-A,Powder,6,25000,150000,3.0
ORD000176,2026-03-29,CUST01935,Malang,Gang Monginsidi No. 517,-7.967076,112.636973,SKU-D,PersonalCare,14,85000,1190000,21.0
ORD000177,2025-11-16,CUST09989,Bandung,Gang K.H. Wahid Hasyim No. 45,-6.909357,107.596268,SKU-A,Powder,4,25000,100000,2.0
ORD000178,2025-12-15,CUST13921,Serang,Gang Setiabudhi No. 37,-6.104479,106.169084,SKU-D,PersonalCare,23,85000,1955000,34.5
ORD000179,2025-11-17,CUST15459,Solo,Gang Dipatiukur No. 5,-7.566977,110.826525,SKU-B,Beverage,17,55000,935000,20.4
ORD000180,2025-11-27,CUST06002,Serang,Jl. K.H. Wahid Hasyim No. 8,-6.1386,106.139347,SKU-D,PersonalCare,18,85000,1530000,27.0
ORD000181,2026-02-28,CUST29905,Semarang,Jalan Laswi No. 014,-6.930558,110.39857,SKU-B,Beverage,5,55000,275000,6.0
ORD000182,2025-11-20,CUST14652,Surabaya,Jalan Rungkut Industri No. 892,-7.277771,112.710591,SKU-B,Beverage,22,55000,1210000,26.4
ORD000183,2025-11-07,CUST03306,Jakarta,Gg. Kebonjati No. 8,-6.228824,106.836459,SKU-D,PersonalCare,16,85000,1360000,24.0
ORD000184,2026-04-28,CUST12655,Surabaya,Jalan Erlangga No. 624,-7.269445,112.774504,SKU-C,Snack,22,15000,330000,4.4
ORD000185,2025-12-31,CUST16824,Jember,Gg. Indragiri No. 01,-8.18444,113.702163,SKU-C,Snack,9,15000,135000,1.8
ORD000186,2026-03-02,CUST18629,Semarang,Jalan K.H. Wahid Hasyim No. 457,-6.961615,110.418666,SKU-B,Beverage,41,55000,2255000,49.2
ORD000187,2025-12-29,CUST17400,Bogor,Jl. Antapani Lama No. 16,-6.62455,106.773204,SKU-C,Snack,12,15000,180000,2.4
ORD000188,2026-04-05,CUST29085,Yogyakarta,Gang M.H Thamrin No. 4,-7.762135,110.35957,SKU-C,Snack,25,15000,375000,5.0
ORD000189,2026-03-11,CUST23865,Jakarta,Gg. W.R. Supratman No. 3,-6.214755,106.894812,SKU-D,PersonalCare,27,85000,2295000,40.5
ORD000190,2025-11-04,CUST05213,Jakarta,Jl. Kapten Muslihat No. 00,-6.164274,106.869273,SKU-A,Powder,23,25000,575000,11.5
ORD000191,2026-02-11,CUST05154,Jakarta,Jl. Peta No. 62,-6.212558,106.839779,SKU-D,PersonalCare,19,85000,1615000,28.5
ORD000192,2026-04-25,CUST02691,Bekasi,Jl. Tubagus Ismail No. 8,-6.189617,106.997825,SKU-B,Beverage,35,55000,1925000,42.0
ORD000193,2025-12-01,CUST16307,Solo,Gang Jend. A. Yani No. 535,-7.575414,110.779427,SKU-C,Snack,10,15000,150000,2.0
ORD000194,2026-04-24,CUST14390,Yogyakarta,Jalan Suryakencana No. 890,-7.758545,110.415585,SKU-D,PersonalCare,35,85000,2975000,52.5
ORD000195,2025-11-24,CUST23368,Jakarta,Jalan Jend. Sudirman No. 3,-6.257055,106.846118,SKU-A,Powder,23,25000,575000,11.5
ORD000196,2025-11-01,CUST08343,Depok,Gang Rumah Sakit No. 2,-6.407557,106.808753,SKU-D,PersonalCare,16,85000,1360000,24.0
ORD000197,2026-03-15,CUST29370,Jakarta,Gg. S. Parman No. 24,-6.224269,106.878811,SKU-B,Beverage,42,55000,2310000,50.4
ORD000198,2026-04-04,CUST23537,Solo,Jl. Rajawali Barat No. 6,-7.591224,110.871349,SKU-C,Snack,35,15000,525000,7.0
ORD000199,2026-03-31,CUST11597,Jember,Gg. Cempaka No. 13,-8.199416,113.73291,SKU-D,PersonalCare,28,85000,2380000,42.0
ORD000200,2025-11-28,CUST14486,Yogyakarta,Jl. HOS. Cokroaminoto No. 8,-7.796369,110.405097,SKU-B,Beverage,23,55000,1265000,27.6
ORD000201,2026-02-03,CUST14891,Tangerang,Gg. Ciwastra No. 6,-6.200383,106.61664,SKU-C,Snack,8,15000,120000,1.6
ORD000202,2026-04-13,CUST09158,Semarang,Gg. Jakarta No. 10,-6.929453,110.379423,SKU-D,PersonalCare,28,85000,2380000,42.0
ORD000203,2026-02-18,CUST06973,Bogor,Gg. Veteran No. 360,-6.593481,106.844427,SKU-B,Beverage,11,55000,605000,13.2
ORD000204,2026-04-01,CUST16767,Bandung,Jalan PHH. Mustofa No. 4,-6.878307,107.605618,SKU-C,Snack,25,15000,375000,5.0
ORD000205,2026-03-26,CUST08495,Semarang,Gang Antapani Lama No. 9,-6.921744,110.456507,SKU-D,PersonalCare,29,85000,2465000,43.5
ORD000206,2025-11-25,CUST22450,Yogyakarta,Gang Kebonjati No. 90,-7.82212,110.371022,SKU-C,Snack,27,15000,405000,5.4
ORD000207,2025-12-20,CUST08088,Malang,Gg. Pasteur No. 76,-8.001961,112.633513,SKU-A,Powder,24,25000,600000,12.0
ORD000208,2025-11-14,CUST02055,Tangerang,Gg. Astana Anyar No. 98,-6.201126,106.606511,SKU-A,Powder,19,25000,475000,9.5
ORD000209,2026-01-24,CUST25651,Jember,Jl. Cempaka No. 73,-8.155977,113.696861,SKU-D,PersonalCare,22,85000,1870000,33.0
ORD000210,2026-03-09,CUST27077,Cirebon,Gg. Cikapayang No. 94,-6.702737,108.503287,SKU-D,PersonalCare,28,85000,2380000,42.0
ORD000211,2026-03-02,CUST25085,Surabaya,Jl. Jend. Sudirman No. 273,-7.229747,112.796439,SKU-D,PersonalCare,7,85000,595000,10.5
ORD000212,2026-03-14,CUST13917,Surabaya,Gg. Cikutra Barat No. 967,-7.245021,112.77948,SKU-D,PersonalCare,14,85000,1190000,21.0
ORD000213,2026-04-13,CUST02899,Bandung,Jl. Ciwastra No. 928,-6.955908,107.667805,SKU-A,Powder,22,25000,550000,11.0
ORD000214,2026-02-05,CUST04775,Semarang,Jalan Sukabumi No. 5,-6.970878,110.438235,SKU-A,Powder,22,25000,550000,11.0
ORD000215,2025-11-09,CUST27454,Surabaya,Jalan Gedebage Selatan No. 740,-7.301508,112.7751,SKU-A,Powder,15,25000,375000,7.5
ORD000216,2025-11-13,CUST28138,Surabaya,Gang Dipatiukur No. 3,-7.231383,112.741836,SKU-C,Snack,7,15000,105000,1.4
ORD000217,2026-01-07,CUST06380,Semarang,Jl. Monginsidi No. 7,-6.940723,110.389522,SKU-C,Snack,13,15000,195000,2.6
ORD000218,2025-12-20,CUST24428,Jember,Gang Kebonjati No. 3,-8.220144,113.746997,SKU-C,Snack,18,15000,270000,3.6
ORD000219,2026-03-08,CUST25842,Jakarta,Gg. Kendalsari No. 77,-6.206564,106.825403,SKU-A,Powder,15,25000,375000,7.5
ORD000220,2026-01-19,CUST15183,Bekasi,Jl. Wonoayu No. 380,-6.270474,107.004896,SKU-D,PersonalCare,7,85000,595000,10.5
ORD000221,2026-01-03,CUST18978,Bogor,Jl. Rawamangun No. 9,-6.611349,106.774479,SKU-B,Beverage,16,55000,880000,19.2
ORD000222,2025-11-01,CUST05032,Kediri,Gg. Rajawali Barat No. 26,-7.894875,111.993159,SKU-A,Powder,13,25000,325000,6.5
ORD000223,2026-02-02,CUST24237,Depok,Jl. Gegerkalong Hilir No. 180,-6.357361,106.840373,SKU-C,Snack,24,15000,360000,4.8
ORD000224,2026-01-31,CUST04697,Bandung,Gg. Dipenogoro No. 19,-6.966228,107.56956,SKU-B,Beverage,15,55000,825000,18.0
ORD000225,2026-04-12,CUST23468,Bandung,Gg. Jend. Sudirman No. 87,-6.966718,107.632783,SKU-A,Powder,11,25000,275000,5.5
ORD000226,2025-12-05,CUST01073,Yogyakarta,Jl. Pacuan Kuda No. 173,-7.766135,110.393208,SKU-D,PersonalCare,25,85000,2125000,37.5
ORD000227,2025-11-23,CUST24777,Cirebon,Gang Dipenogoro No. 23,-6.769146,108.600492,SKU-D,PersonalCare,12,85000,1020000,18.0
ORD000228,2026-04-12,CUST04737,Jakarta,Jl. Ciwastra No. 0,-6.168044,106.855093,SKU-A,Powder,13,25000,325000,6.5
ORD000229,2026-02-17,CUST11078,Bekasi,Jl. R.E Martadinata No. 4,-6.2128,106.967066,SKU-C,Snack,20,15000,300000,4.0
ORD000230,2025-11-15,CUST09175,Semarang,Gg. Antapani Lama No. 967,-6.933359,110.394938,SKU-B,Beverage,23,55000,1265000,27.6
ORD000231,2026-02-26,CUST19813,Bekasi,Jl. Kiaracondong No. 0,-6.283343,106.975356,SKU-A,Powder,13,25000,325000,6.5
ORD000232,2025-11-07,CUST18872,Depok,Gg. M.T Haryono No. 76,-6.359468,106.76914,SKU-D,PersonalCare,19,85000,1615000,28.5
ORD000233,2026-03-30,CUST23509,Surabaya,Jl. Pelajar Pejuang No. 26,-7.30178,112.714303,SKU-C,Snack,20,15000,300000,4.0
ORD000234,2025-11-25,CUST07626,Bekasi,Jalan Moch. Ramdan No. 86,-6.201852,107.013506,SKU-B,Beverage,7,55000,385000,8.4
ORD000235,2025-11-19,CUST15717,Jakarta,Gang Dipatiukur No. 423,-6.247997,106.844722,SKU-D,PersonalCare,20,85000,1700000,30.0
ORD000236,2026-03-27,CUST26528,Serang,Jalan Veteran No. 257,-6.078029,106.184958,SKU-C,Snack,32,15000,480000,6.4
ORD000237,2026-02-02,CUST14849,Malang,Jl. Raya Setiabudhi No. 76,-7.96745,112.597307,SKU-B,Beverage,18,55000,990000,21.6
ORD000238,2025-12-28,CUST20665,Jakarta,Gang M.H Thamrin No. 637,-6.220871,106.836,SKU-B,Beverage,32,55000,1760000,38.4
ORD000239,2026-04-24,CUST15443,Jakarta,Jalan Pasteur No. 4,-6.222921,106.799911,SKU-B,Beverage,31,55000,1705000,37.2
ORD000240,2026-01-09,CUST28973,Bandung,Gg. Raya Ujungberung No. 8,-6.884705,107.57539,SKU-B,Beverage,20,55000,1100000,24.0
ORD000241,2026-01-26,CUST11761,Bekasi,Jl. Astana Anyar No. 16,-6.249979,106.961755,SKU-A,Powder,6,25000,150000,3.0
ORD000242,2026-03-20,CUST21866,Kediri,Jl. Tebet Barat Dalam No. 13,-7.823622,112.048165,SKU-B,Beverage,32,55000,1760000,38.4
ORD000243,2026-02-14,CUST26572,Bekasi,Gg. Suryakencana No. 220,-6.232346,107.013672,SKU-C,Snack,22,15000,330000,4.4
ORD000244,2026-02-16,CUST19754,Yogyakarta,Gang Astana Anyar No. 7,-7.843291,110.404588,SKU-A,Powder,9,25000,225000,4.5
ORD000245,2026-03-27,CUST13653,Malang,Jalan Rajawali Timur No. 349,-7.946511,112.586805,SKU-C,Snack,21,15000,315000,4.2
ORD000246,2026-01-27,CUST08814,Serang,Gg. Ronggowarsito No. 1,-6.146236,106.152245,SKU-B,Beverage,15,55000,825000,18.0
ORD000247,2026-01-20,CUST03947,Kediri,Jl. Medokan Ayu No. 634,-7.806995,112.066753,SKU-C,Snack,19,15000,285000,3.8
ORD000248,2026-02-04,CUST01359,Surabaya,Jalan Ronggowarsito No. 0,-7.254421,112.73685,SKU-D,PersonalCare,21,85000,1785000,31.5
ORD000249,2025-12-01,CUST11995,Surabaya,Gg. Jayawijaya No. 1,-7.220898,112.758598,SKU-D,PersonalCare,24,85000,2040000,36.0
ORD000250,2026-03-03,CUST22118,Surabaya,Gang Kutisari Selatan No. 90,-7.229198,112.797832,SKU-A,Powder,33,25000,825000,16.5
ORD000251,2026-01-11,CUST25594,Bandung,Gg. Pasteur No. 0,-6.95921,107.598627,SKU-A,Powder,8,25000,200000,4.0
ORD000252,2026-01-09,CUST24622,Jakarta,Gang Dipenogoro No. 32,-6.21196,106.864315,SKU-B,Beverage,10,55000,550000,12.0
ORD000253,2025-11-14,CUST27931,Bandung,Jalan Jend. A. Yani No. 063,-6.91967,107.642469,SKU-D,PersonalCare,6,85000,510000,9.0
ORD000254,2025-11-02,CUST03964,Semarang,Jalan Gedebage Selatan No. 06,-6.958866,110.425812,SKU-B,Beverage,11,55000,605000,13.2
ORD000255,2026-04-24,CUST24623,Surabaya,Jl. R.E Martadinata No. 61,-7.263871,112.715368,SKU-A,Powder,27,25000,675000,13.5
ORD000256,2025-11-27,CUST25122,Malang,Jl. Jayawijaya No. 247,-7.985331,112.586739,SKU-A,Powder,21,25000,525000,10.5
ORD000257,2026-01-06,CUST16448,Bandung,Gg. M.H Thamrin No. 06,-6.945438,107.600991,SKU-A,Powder,8,25000,200000,4.0
ORD000258,2026-02-03,CUST05347,Cirebon,Gg. Sukabumi No. 64,-6.778239,108.567411,SKU-B,Beverage,25,55000,1375000,30.0
ORD000259,2026-01-03,CUST06190,Bandung,Jalan Suniaraja No. 10,-6.936527,107.616362,SKU-A,Powder,12,25000,300000,6.0
ORD000260,2026-03-07,CUST11132,Bekasi,Gg. Ciumbuleuit No. 09,-6.214938,106.928731,SKU-B,Beverage,23,55000,1265000,27.6
ORD000261,2026-03-28,CUST23448,Surabaya,Gang Sadang Serang No. 83,-7.283927,112.771692,SKU-B,Beverage,16,55000,880000,19.2
ORD000262,2025-12-09,CUST17160,Surabaya,Jl. Waringin No. 248,-7.209838,112.774324,SKU-A,Powder,8,25000,200000,4.0
ORD000263,2026-03-09,CUST15153,Jakarta,Gg. Cihampelas No. 22,-6.226765,106.824768,SKU-B,Beverage,37,55000,2035000,44.4
ORD000264,2026-04-05,CUST16524,Jakarta,Jalan Pelajar Pejuang No. 2,-6.199982,106.866202,SKU-B,Beverage,24,55000,1320000,28.8
ORD000265,2026-01-05,CUST24185,Cirebon,Jl. Soekarno Hatta No. 87,-6.719023,108.589968,SKU-D,PersonalCare,21,85000,1785000,31.5
ORD000266,2026-02-25,CUST13728,Depok,Gg. Ir. H. Djuanda No. 185,-6.423337,106.780307,SKU-C,Snack,26,15000,390000,5.2
ORD000267,2026-02-25,CUST22604,Cirebon,Jalan PHH. Mustofa No. 588,-6.739041,108.556283,SKU-C,Snack,19,15000,285000,3.8
ORD000268,2026-02-01,CUST17787,Tangerang,Jalan Erlangga No. 96,-6.191288,106.654748,SKU-A,Powder,22,25000,550000,11.0
ORD000269,2026-02-19,CUST06197,Bekasi,Jalan Gedebage Selatan No. 009,-6.285405,106.959281,SKU-B,Beverage,23,55000,1265000,27.6
ORD000270,2026-03-23,CUST02986,Malang,Gang Kendalsari No. 7,-7.990439,112.656266,SKU-C,Snack,32,15000,480000,6.4
ORD000271,2026-01-19,CUST08312,Bandung,Jl. Stasiun Wonokromo No. 9,-6.946814,107.665638,SKU-B,Beverage,22,55000,1210000,26.4
ORD000272,2025-12-24,CUST05825,Surabaya,Gg. HOS. Cokroaminoto No. 331,-7.282147,112.719825,SKU-C,Snack,21,15000,315000,4.2
ORD000273,2025-11-08,CUST09340,Solo,Gg. Sukajadi No. 2,-7.603177,110.788776,SKU-A,Powder,14,25000,350000,7.0
ORD000274,2026-02-17,CUST07525,Solo,Gang Dipenogoro No. 432,-7.59865,110.776456,SKU-B,Beverage,21,55000,1155000,25.2
ORD000275,2025-12-31,CUST07806,Bekasi,Jl. W.R. Supratman No. 8,-6.242359,106.948342,SKU-D,PersonalCare,14,85000,1190000,21.0
ORD000276,2025-11-22,CUST06952,Depok,Gg. Yos Sudarso No. 76,-6.393222,106.797439,SKU-A,Powder,22,25000,550000,11.0
ORD000277,2026-01-18,CUST16129,Semarang,Jl. BKR No. 75,-6.985199,110.382102,SKU-C,Snack,24,15000,360000,4.8
ORD000278,2026-04-02,CUST07910,Solo,Jl. Merdeka No. 2,-7.569665,110.810623,SKU-B,Beverage,7,55000,385000,8.4
ORD000279,2026-04-02,CUST16362,Cirebon,Gg. Rawamangun No. 4,-6.686003,108.574258,SKU-A,Powder,19,25000,475000,9.5
ORD000280,2025-12-15,CUST11596,Malang,Gang Astana Anyar No. 94,-7.98694,112.609655,SKU-D,PersonalCare,9,85000,765000,13.5
ORD000281,2025-11-20,CUST22444,Jakarta,Gg. Rajawali Timur No. 0,-6.194379,106.870399,SKU-C,Snack,13,15000,195000,2.6
ORD000282,2026-02-08,CUST19805,Bandung,Gg. Ciumbuleuit No. 011,-6.882301,107.640066,SKU-B,Beverage,22,55000,1210000,26.4
ORD000283,2025-12-22,CUST26740,Surabaya,Jl. S. Parman No. 861,-7.256402,112.75056,SKU-C,Snack,19,15000,285000,3.8
ORD000284,2025-12-15,CUST02052,Jakarta,Jalan Raya Ujungberung No. 1,-6.184554,106.849679,SKU-C,Snack,26,15000,390000,5.2
ORD000285,2026-03-05,CUST08618,Surabaya,Gang Jend. A. Yani No. 125,-7.247314,112.70667,SKU-C,Snack,28,15000,420000,5.6
ORD000286,2025-12-25,CUST07783,Yogyakarta,Jl. Indragiri No. 140,-7.826343,110.364405,SKU-B,Beverage,20,55000,1100000,24.0
ORD000287,2026-01-13,CUST17931,Serang,Jalan Medokan Ayu No. 783,-6.070351,106.101801,SKU-C,Snack,15,15000,225000,3.0
ORD000288,2026-01-29,CUST26307,Depok,Gang Lembong No. 327,-6.43367,106.800139,SKU-B,Beverage,5,55000,275000,6.0
ORD000289,2026-03-03,CUST28752,Bandung,Gang Surapati No. 3,-6.911077,107.632383,SKU-D,PersonalCare,24,85000,2040000,36.0
ORD000290,2026-02-05,CUST24838,Bogor,Gang Cempaka No. 86,-6.545759,106.822805,SKU-A,Powder,15,25000,375000,7.5
ORD000291,2025-12-29,CUST15204,Depok,Jalan Abdul Muis No. 885,-6.354058,106.78763,SKU-B,Beverage,28,55000,1540000,33.6
ORD000292,2025-12-20,CUST28574,Bandung,Gg. M.T Haryono No. 94,-6.917337,107.580137,SKU-A,Powder,16,25000,400000,8.0
ORD000293,2025-12-28,CUST22724,Surabaya,Gang Rungkut Industri No. 501,-7.254154,112.792285,SKU-C,Snack,19,15000,285000,3.8
ORD000294,2026-01-05,CUST05693,Bogor,Jl. Jend. Sudirman No. 3,-6.599814,106.833147,SKU-A,Powder,10,25000,250000,5.0
ORD000295,2026-01-23,CUST25350,Bogor,Jalan Kendalsari No. 2,-6.625964,106.781719,SKU-B,Beverage,6,55000,330000,7.2
ORD000296,2026-04-17,CUST08856,Surabaya,Gg. Bangka Raya No. 067,-7.213421,112.752507,SKU-D,PersonalCare,9,85000,765000,13.5
ORD000297,2026-02-17,CUST09182,Tangerang,Gang Rajiman No. 529,-6.200281,106.629385,SKU-C,Snack,17,15000,255000,3.4
ORD000298,2026-04-06,CUST22258,Jember,Jalan Stasiun Wonokromo No. 9,-8.162791,113.745675,SKU-B,Beverage,30,55000,1650000,36.0
ORD000299,2025-12-04,CUST17788,Surabaya,Jl. Soekarno Hatta No. 5,-7.245599,112.762354,SKU-C,Snack,5,15000,75000,1.0
ORD000300,2025-11-02,CUST24256,Serang,Jalan Moch. Toha No. 689,-6.124499,106.13256,SKU-B,Beverage,13,55000,715000,15.6
ORD000301,2026-01-07,CUST09958,Yogyakarta,Gang Ir. H. Djuanda No. 73,-7.814709,110.40921,SKU-A,Powder,9,25000,225000,4.5
ORD000302,2026-01-04,CUST20956,Surabaya,Gang Cikutra Barat No. 47,-7.25999,112.790101,SKU-D,PersonalCare,13,85000,1105000,19.5
ORD000303,2026-04-05,CUST09008,Tangerang,Gang BKR No. 7,-6.188695,106.650527,SKU-D,PersonalCare,25,85000,2125000,37.5
ORD000304,2025-11-24,CUST10970,Tangerang,Jalan Siliwangi No. 52,-6.167155,106.588622,SKU-D,PersonalCare,18,85000,1530000,27.0
ORD000305,2025-11-15,CUST12742,Semarang,Gang Kendalsari No. 5,-6.941778,110.386385,SKU-C,Snack,25,15000,375000,5.0
ORD000306,2025-12-22,CUST08605,Yogyakarta,Jl. Merdeka No. 0,-7.789555,110.388291,SKU-A,Powder,25,25000,625000,12.5
ORD000307,2026-03-04,CUST15961,Jakarta,Jl. Indragiri No. 071,-6.200761,106.850278,SKU-B,Beverage,13,55000,715000,15.6
ORD000308,2025-11-11,CUST01221,Jakarta,Gang Merdeka No. 4,-6.230631,106.803502,SKU-C,Snack,17,15000,255000,3.4
ORD000309,2025-11-30,CUST08079,Jakarta,Gg. Rajiman No. 33,-6.202309,106.883585,SKU-B,Beverage,18,55000,990000,21.6
ORD000310,2026-02-10,CUST29119,Surabaya,Jalan W.R. Supratman No. 4,-7.24561,112.781336,SKU-D,PersonalCare,19,85000,1615000,28.5
ORD000311,2026-01-22,CUST16584,Solo,Gang Dipatiukur No. 29,-7.532739,110.857273,SKU-D,PersonalCare,6,85000,510000,9.0
ORD000312,2026-04-29,CUST20344,Semarang,Jalan Jayawijaya No. 0,-6.929603,110.455917,SKU-B,Beverage,30,55000,1650000,36.0
ORD000313,2026-03-12,CUST06552,Semarang,Gang Dipatiukur No. 4,-6.974211,110.412422,SKU-D,PersonalCare,28,85000,2380000,42.0
ORD000314,2026-02-05,CUST23564,Jakarta,Jl. Merdeka No. 639,-6.196699,106.88105,SKU-B,Beverage,23,55000,1265000,27.6
ORD000315,2026-01-23,CUST21349,Semarang,Jl. Jamika No. 01,-6.995736,110.421354,SKU-B,Beverage,8,55000,440000,9.6
ORD000316,2026-02-05,CUST12114,Bekasi,Gang Pelajar Pejuang No. 042,-6.201101,106.959534,SKU-A,Powder,25,25000,625000,12.5
ORD000317,2026-01-19,CUST25018,Cirebon,Jl. S. Parman No. 212,-6.733555,108.508875,SKU-A,Powder,6,25000,150000,3.0
ORD000318,2026-03-14,CUST19743,Depok,Gang Sukajadi No. 034,-6.425877,106.760114,SKU-C,Snack,12,15000,180000,2.4
ORD000319,2026-01-25,CUST07247,Bandung,Jalan Asia Afrika No. 83,-6.959322,107.660769,SKU-B,Beverage,7,55000,385000,8.4
ORD000320,2025-11-09,CUST04155,Semarang,Jalan Rumah Sakit No. 05,-6.939602,110.376205,SKU-A,Powder,10,25000,250000,5.0
ORD000321,2025-12-05,CUST10359,Solo,Jalan Indragiri No. 2,-7.571567,110.815864,SKU-B,Beverage,25,55000,1375000,30.0
ORD000322,2026-01-06,CUST22890,Depok,Jl. Abdul Muis No. 75,-6.434348,106.811936,SKU-B,Beverage,7,55000,385000,8.4
ORD000323,2025-11-25,CUST01194,Malang,Gg. Cempaka No. 026,-7.941423,112.655305,SKU-A,Powder,14,25000,350000,7.0
ORD000324,2026-04-14,CUST26205,Surabaya,Gg. R.E Martadinata No. 8,-7.233225,112.717513,SKU-A,Powder,18,25000,450000,9.0
ORD000325,2026-01-25,CUST23934,Kediri,Jl. Dipatiukur No. 142,-7.813961,111.971269,SKU-A,Powder,22,25000,550000,11.0
ORD000326,2025-12-17,CUST16168,Bekasi,Gg. Ciumbuleuit No. 647,-6.270948,106.950948,SKU-C,Snack,22,15000,330000,4.4
ORD000327,2026-01-22,CUST13265,Jakarta,Jl. Pelajar Pejuang No. 24,-6.195209,106.816819,SKU-A,Powder,21,25000,525000,10.5
ORD000328,2026-01-01,CUST03108,Depok,Jalan Laswi No. 60,-6.361385,106.797702,SKU-B,Beverage,16,55000,880000,19.2
ORD000329,2026-01-11,CUST27712,Semarang,Jalan Otto Iskandardinata No. 0,-6.991404,110.377378,SKU-B,Beverage,10,55000,550000,12.0
ORD000330,2026-04-10,CUST01156,Surabaya,Gang Rajawali Timur No. 727,-7.275397,112.744785,SKU-C,Snack,18,15000,270000,3.6
ORD000331,2026-04-02,CUST27538,Yogyakarta,Gang Suniaraja No. 914,-7.786404,110.349397,SKU-C,Snack,20,15000,300000,4.0
ORD000332,2026-03-05,CUST26085,Bandung,Jalan Ahmad Yani No. 907,-6.878002,107.581309,SKU-A,Powder,23,25000,575000,11.5
ORD000333,2026-01-18,CUST02032,Depok,Jl. KH Amin Jasuta No. 949,-6.442826,106.791937,SKU-A,Powder,14,25000,350000,7.0
ORD000334,2025-12-21,CUST17448,Bekasi,Jl. Stasiun Wonokromo No. 632,-6.243269,106.973628,SKU-D,PersonalCare,15,85000,1275000,22.5
ORD000335,2025-12-01,CUST09045,Kediri,Jl. Gardujati No. 485,-7.862096,111.986198,SKU-B,Beverage,12,55000,660000,14.4
ORD000336,2025-11-04,CUST18799,Semarang,Jalan Rajawali Barat No. 48,-7.014333,110.434372,SKU-A,Powder,7,25000,175000,3.5
ORD000337,2026-01-11,CUST29122,Bandung,Jl. Wonoayu No. 156,-6.918467,107.596946,SKU-C,Snack,5,15000,75000,1.0
ORD000338,2025-12-26,CUST21174,Bandung,Jl. Surapati No. 26,-6.882335,107.659286,SKU-B,Beverage,14,55000,770000,16.8
ORD000339,2026-01-10,CUST11816,Bandung,Jl. Sukajadi No. 0,-6.888098,107.660291,SKU-C,Snack,22,15000,330000,4.4
ORD000340,2026-04-19,CUST02365,Bekasi,Gg. Laswi No. 31,-6.248819,106.98604,SKU-A,Powder,13,25000,325000,6.5
ORD000341,2025-12-15,CUST07444,Tangerang,Gg. Gardujati No. 6,-6.134456,106.615195,SKU-D,PersonalCare,18,85000,1530000,27.0
ORD000342,2026-01-03,CUST06884,Semarang,Jl. Siliwangi No. 69,-6.996385,110.414041,SKU-D,PersonalCare,12,85000,1020000,18.0
ORD000343,2026-03-31,CUST15173,Tangerang,Jalan Suniaraja No. 26,-6.162813,106.622159,SKU-B,Beverage,24,55000,1320000,28.8
ORD000344,2025-12-27,CUST28352,Depok,Jalan Kapten Muslihat No. 7,-6.3734,106.757145,SKU-C,Snack,13,15000,195000,2.6
ORD000345,2026-02-08,CUST17957,Jakarta,Jl. Erlangga No. 1,-6.16083,106.815648,SKU-B,Beverage,9,55000,495000,10.8
ORD000346,2026-03-27,CUST27482,Bandung,Gg. Soekarno Hatta No. 96,-6.886612,107.590042,SKU-B,Beverage,16,55000,880000,19.2
ORD000347,2025-11-04,CUST20386,Surabaya,Gang Jend. A. Yani No. 6,-7.212965,112.739383,SKU-D,PersonalCare,4,85000,340000,6.0
ORD000348,2026-03-10,CUST29923,Surabaya,Jalan Kutai No. 8,-7.217772,112.707437,SKU-B,Beverage,27,55000,1485000,32.4
ORD000349,2026-04-06,CUST10712,Bandung,Gang BKR No. 1,-6.922419,107.613084,SKU-B,Beverage,11,55000,605000,13.2
ORD000350,2025-11-12,CUST29572,Bandung,Gang Antapani Lama No. 893,-6.921009,107.634411,SKU-A,Powder,20,25000,500000,10.0
ORD000351,2026-03-18,CUST05751,Depok,Jalan Gardujati No. 71,-6.433885,106.758603,SKU-C,Snack,10,15000,150000,2.0
ORD000352,2025-11-11,CUST25535,Surabaya,Gang Kebonjati No. 7,-7.267834,112.75111,SKU-D,PersonalCare,17,85000,1445000,25.5
ORD000353,2026-04-08,CUST12193,Bandung,Gang Suniaraja No. 76,-6.872617,107.578908,SKU-A,Powder,8,25000,200000,4.0
ORD000354,2025-12-17,CUST05408,Jakarta,Gg. Laswi No. 002,-6.241296,106.798839,SKU-A,Powder,10,25000,250000,5.0
ORD000355,2026-04-21,CUST22875,Jakarta,Gg. Cempaka No. 5,-6.193873,106.875523,SKU-C,Snack,16,15000,240000,3.2
ORD000356,2025-11-24,CUST20540,Malang,Jalan Suniaraja No. 4,-7.967446,112.634193,SKU-A,Powder,7,25000,175000,3.5
ORD000357,2026-02-23,CUST23882,Bandung,Jalan Medokan Ayu No. 29,-6.872192,107.656512,SKU-C,Snack,15,15000,225000,3.0
ORD000358,2025-12-17,CUST01527,Depok,Gang M.T Haryono No. 61,-6.418196,106.777486,SKU-B,Beverage,17,55000,935000,20.4
ORD000359,2025-12-20,CUST21256,Solo,Gang Indragiri No. 4,-7.526565,110.868095,SKU-D,PersonalCare,29,85000,2465000,43.5
ORD000360,2026-04-16,CUST08978,Kediri,Gang Suryakencana No. 0,-7.87148,112.055531,SKU-C,Snack,9,15000,135000,1.8
ORD000361,2026-03-16,CUST03658,Solo,Jalan Cikutra Timur No. 68,-7.531932,110.827439,SKU-D,PersonalCare,30,85000,2550000,45.0
ORD000362,2026-02-24,CUST14769,Surabaya,Gang Yos Sudarso No. 83,-7.266765,112.702912,SKU-A,Powder,16,25000,400000,8.0
ORD000363,2026-03-10,CUST03691,Surabaya,Gg. Moch. Toha No. 8,-7.2868,112.72698,SKU-C,Snack,17,15000,255000,3.4
ORD000364,2025-11-26,CUST15614,Jakarta,Jl. Cikutra Barat No. 740,-6.190954,106.891383,SKU-A,Powder,19,25000,475000,9.5
ORD000365,2025-12-04,CUST19453,Serang,Gang Joyoboyo No. 9,-6.070957,106.17779,SKU-D,PersonalCare,29,85000,2465000,43.5
ORD000366,2025-12-24,CUST04219,Semarang,Jalan Kiaracondong No. 867,-6.944655,110.44422,SKU-B,Beverage,14,55000,770000,16.8
ORD000367,2025-12-29,CUST22202,Semarang,Jl. Antapani Lama No. 436,-6.965807,110.452286,SKU-D,PersonalCare,30,85000,2550000,45.0
ORD000368,2026-02-06,CUST28559,Kediri,Gg. Bangka Raya No. 87,-7.848009,112.05725,SKU-D,PersonalCare,10,85000,850000,15.0
ORD000369,2025-11-10,CUST08491,Jakarta,Gang Kapten Muslihat No. 3,-6.233698,106.840862,SKU-B,Beverage,16,55000,880000,19.2
ORD000370,2026-01-05,CUST20305,Malang,Gang Asia Afrika No. 0,-7.930636,112.662344,SKU-B,Beverage,11,55000,605000,13.2
ORD000371,2026-04-07,CUST01413,Depok,Gang Siliwangi No. 65,-6.394745,106.788283,SKU-D,PersonalCare,17,85000,1445000,25.5
ORD000372,2025-11-23,CUST17813,Semarang,Jalan Astana Anyar No. 479,-6.96737,110.401672,SKU-B,Beverage,14,55000,770000,16.8
ORD000373,2026-01-11,CUST15263,Kediri,Jl. Surapati No. 5,-7.883991,112.006525,SKU-A,Powder,5,25000,125000,2.5
ORD000374,2026-04-05,CUST04475,Bogor,Jl. Rajawali Timur No. 386,-6.629264,106.825835,SKU-A,Powder,17,25000,425000,8.5
ORD000375,2026-04-23,CUST02581,Surabaya,Gg. Joyoboyo No. 39,-7.214167,112.716481,SKU-C,Snack,16,15000,240000,3.2
ORD000376,2026-01-09,CUST18617,Bandung,Jl. Jamika No. 70,-6.879574,107.609318,SKU-A,Powder,5,25000,125000,2.5
ORD000377,2026-04-19,CUST29384,Malang,Gg. Asia Afrika No. 707,-7.934632,112.681849,SKU-B,Beverage,32,55000,1760000,38.4
ORD000378,2026-01-12,CUST20756,Bekasi,Gang PHH. Mustofa No. 214,-6.243878,107.024309,SKU-B,Beverage,23,55000,1265000,27.6
ORD000379,2026-04-19,CUST18560,Surabaya,Jl. Pasteur No. 2,-7.221856,112.798256,SKU-A,Powder,29,25000,725000,14.5
ORD000380,2026-03-19,CUST02855,Yogyakarta,Jl. Yos Sudarso No. 36,-7.819527,110.383397,SKU-C,Snack,17,15000,255000,3.4
ORD000381,2026-03-22,CUST29314,Surabaya,Jl. Ahmad Yani No. 25,-7.261877,112.731282,SKU-A,Powder,17,25000,425000,8.5
ORD000382,2025-12-06,CUST09102,Jakarta,Gang Setiabudhi No. 7,-6.236325,106.813312,SKU-A,Powder,30,25000,750000,15.0
ORD000383,2025-11-17,CUST11078,Bekasi,Jl. R.E Martadinata No. 4,-6.2128,106.967066,SKU-B,Beverage,23,55000,1265000,27.6
ORD000384,2025-12-13,CUST14113,Tangerang,Jalan Gardujati No. 94,-6.136889,106.605098,SKU-C,Snack,10,15000,150000,2.0
ORD000385,2026-01-13,CUST24877,Bandung,Gang Abdul Muis No. 909,-6.887794,107.582873,SKU-D,PersonalCare,21,85000,1785000,31.5
ORD000386,2026-04-01,CUST03752,Bogor,Gang BKR No. 961,-6.550113,106.780699,SKU-A,Powder,24,25000,600000,12.0
ORD000387,2025-11-20,CUST07178,Jakarta,Gg. Cihampelas No. 201,-6.232275,106.872309,SKU-A,Powder,26,25000,650000,13.0
ORD000388,2025-11-29,CUST29629,Bandung,Jl. R.E Martadinata No. 1,-6.961576,107.636526,SKU-A,Powder,11,25000,275000,5.5
ORD000389,2025-12-24,CUST28532,Jakarta,Gg. Indragiri No. 201,-6.238054,106.803796,SKU-D,PersonalCare,10,85000,850000,15.0
ORD000390,2025-12-21,CUST25387,Semarang,Gg. Jend. A. Yani No. 411,-7.00383,110.403132,SKU-D,PersonalCare,29,85000,2465000,43.5
ORD000391,2026-02-09,CUST27707,Semarang,Jl. Tebet Barat Dalam No. 044,-7.009405,110.451826,SKU-D,PersonalCare,19,85000,1615000,28.5
ORD000392,2026-04-28,CUST04618,Cirebon,Gang Jend. Sudirman No. 39,-6.715996,108.541921,SKU-C,Snack,12,15000,180000,2.4
ORD000393,2026-02-09,CUST12606,Surabaya,Gang Cikutra Timur No. 8,-7.237219,112.784786,SKU-C,Snack,17,15000,255000,3.4
ORD000394,2026-03-05,CUST26224,Jember,Jl. Laswi No. 9,-8.12639,113.699536,SKU-D,PersonalCare,19,85000,1615000,28.5
ORD000395,2026-01-01,CUST04825,Yogyakarta,Jl. Cihampelas No. 7,-7.771236,110.363053,SKU-A,Powder,14,25000,350000,7.0
ORD000396,2026-01-25,CUST13913,Cirebon,Jl. KH Amin Jasuta No. 62,-6.68398,108.556084,SKU-C,Snack,4,15000,60000,0.8
ORD000397,2026-02-18,CUST20110,Surabaya,Gang Ciumbuleuit No. 881,-7.264186,112.730561,SKU-D,PersonalCare,27,85000,2295000,40.5
ORD000398,2026-02-12,CUST01914,Serang,Jl. Ciwastra No. 1,-6.149339,106.152117,SKU-A,Powder,9,25000,225000,4.5
ORD000399,2026-02-06,CUST05058,Jakarta,Gang Astana Anyar No. 4,-6.229469,106.804337,SKU-C,Snack,25,15000,375000,5.0
ORD000400,2026-02-05,CUST16841,Bekasi,Jalan H.J Maemunah No. 56,-6.216885,107.008492,SKU-A,Powder,20,25000,500000,10.0
ORD000401,2026-02-14,CUST18972,Bandung,Jalan Waringin No. 65,-6.873872,107.612312,SKU-D,PersonalCare,15,85000,1275000,22.5
ORD000402,2025-12-08,CUST24154,Jakarta,Gg. Monginsidi No. 2,-6.239963,106.807228,SKU-C,Snack,5,15000,75000,1.0
ORD000403,2026-01-05,CUST13044,Kediri,Gg. Cihampelas No. 9,-7.806066,112.031602,SKU-D,PersonalCare,5,85000,425000,7.5
ORD000404,2025-12-06,CUST05982,Semarang,Jalan Sukajadi No. 5,-7.005826,110.437187,SKU-A,Powder,9,25000,225000,4.5
ORD000405,2026-01-30,CUST00646,Semarang,Gg. Gedebage Selatan No. 75,-6.925111,110.419463,SKU-B,Beverage,23,55000,1265000,27.6
ORD000406,2026-01-20,CUST11709,Cirebon,Jalan Indragiri No. 111,-6.749925,108.561945,SKU-B,Beverage,7,55000,385000,8.4
ORD000407,2026-02-01,CUST24303,Malang,Gg. Pasteur No. 1,-8.000214,112.617466,SKU-D,PersonalCare,19,85000,1615000,28.5
ORD000408,2026-03-28,CUST13280,Yogyakarta,Jl. Stasiun Wonokromo No. 661,-7.829265,110.37912,SKU-A,Powder,35,25000,875000,17.5
ORD000409,2026-01-16,CUST08082,Malang,Gang Rungkut Industri No. 034,-7.972229,112.675318,SKU-C,Snack,14,15000,210000,2.8
ORD000410,2025-12-06,CUST00811,Malang,Jalan Ir. H. Djuanda No. 55,-7.972097,112.58459,SKU-D,PersonalCare,27,85000,2295000,40.5
ORD000411,2026-04-06,CUST09686,Surabaya,Gang Rajawali Barat No. 555,-7.270757,112.740568,SKU-A,Powder,9,25000,225000,4.5
ORD000412,2025-12-22,CUST28280,Tangerang,Gang Moch. Ramdan No. 997,-6.13502,106.584297,SKU-D,PersonalCare,28,85000,2380000,42.0
ORD000413,2026-04-12,CUST10528,Depok,Jl. Monginsidi No. 95,-6.412589,106.763817,SKU-D,PersonalCare,16,85000,1360000,24.0
ORD000414,2025-12-29,CUST08831,Tangerang,Jalan W.R. Supratman No. 83,-6.133587,106.675685,SKU-B,Beverage,23,55000,1265000,27.6
ORD000415,2026-03-06,CUST27053,Bandung,Jalan Setiabudhi No. 49,-6.93405,107.579264,SKU-C,Snack,13,15000,195000,2.6
ORD000416,2025-12-22,CUST10151,Semarang,Gg. H.J Maemunah No. 346,-6.917991,110.403156,SKU-B,Beverage,13,55000,715000,15.6
ORD000417,2026-04-18,CUST24864,Surabaya,Gang Raya Ujungberung No. 0,-7.226731,112.800362,SKU-A,Powder,25,25000,625000,12.5
ORD000418,2026-01-20,CUST11469,Depok,Jl. Antapani Lama No. 55,-6.400455,106.771483,SKU-B,Beverage,20,55000,1100000,24.0
ORD000419,2025-12-07,CUST14344,Semarang,Jl. Jayawijaya No. 1,-6.994529,110.377463,SKU-D,PersonalCare,20,85000,1700000,30.0
ORD000420,2025-11-19,CUST08487,Solo,Jl. Gardujati No. 625,-7.563808,110.828306,SKU-C,Snack,20,15000,300000,4.0
ORD000421,2026-04-19,CUST19962,Bandung,Gang Asia Afrika No. 2,-6.944323,107.574856,SKU-A,Powder,11,25000,275000,5.5
ORD000422,2026-03-05,CUST08454,Jakarta,Gg. Wonoayu No. 755,-6.207999,106.889755,SKU-D,PersonalCare,27,85000,2295000,40.5
ORD000423,2026-03-03,CUST04849,Depok,Gang H.J Maemunah No. 052,-6.438614,106.76233,SKU-B,Beverage,22,55000,1210000,26.4
ORD000424,2025-11-19,CUST09855,Kediri,Gg. W.R. Supratman No. 3,-7.841779,112.05722,SKU-D,PersonalCare,10,85000,850000,15.0
ORD000425,2026-01-09,CUST29522,Surabaya,Jalan Cihampelas No. 139,-7.245399,112.739915,SKU-B,Beverage,23,55000,1265000,27.6
ORD000426,2025-12-23,CUST06448,Bogor,Jalan H.J Maemunah No. 975,-6.61131,106.783136,SKU-A,Powder,20,25000,500000,10.0
ORD000427,2025-11-21,CUST25422,Surabaya,Jl. M.T Haryono No. 79,-7.267481,112.801971,SKU-B,Beverage,11,55000,605000,13.2
ORD000428,2025-12-25,CUST11832,Tangerang,Jalan Ronggowarsito No. 67,-6.131747,106.641821,SKU-C,Snack,14,15000,210000,2.8
ORD000429,2026-04-19,CUST04436,Tangerang,Jalan Waringin No. 103,-6.173956,106.671862,SKU-A,Powder,6,25000,150000,3.0
ORD000430,2025-11-01,CUST04281,Surabaya,Jalan Laswi No. 412,-7.262523,112.782099,SKU-C,Snack,11,15000,165000,2.2
ORD000431,2026-03-01,CUST28421,Malang,Gg. Cikutra Timur No. 56,-7.920199,112.625639,SKU-B,Beverage,32,55000,1760000,38.4
ORD000432,2026-03-01,CUST13709,Tangerang,Jalan Kiaracondong No. 421,-6.15554,106.644876,SKU-A,Powder,43,25000,1075000,21.5
ORD000433,2025-11-08,CUST02210,Jakarta,Jl. Setiabudhi No. 9,-6.240863,106.797502,SKU-D,PersonalCare,14,85000,1190000,21.0
ORD000434,2026-02-18,CUST06974,Depok,Gg. Raya Setiabudhi No. 738,-6.420654,106.771149,SKU-B,Beverage,10,55000,550000,12.0
ORD000435,2026-04-05,CUST19347,Yogyakarta,Gang Cikutra Timur No. 92,-7.760274,110.322487,SKU-C,Snack,16,15000,240000,3.2
ORD000436,2025-12-09,CUST18692,Surabaya,Jalan Gardujati No. 46,-7.288076,112.778117,SKU-C,Snack,8,15000,120000,1.6
ORD000437,2025-12-13,CUST27156,Semarang,Gang Sentot Alibasa No. 6,-6.963377,110.404495,SKU-C,Snack,12,15000,180000,2.4
ORD000438,2025-11-30,CUST12878,Jakarta,Gg. Cikutra Barat No. 8,-6.187839,106.799301,SKU-A,Powder,16,25000,400000,8.0
ORD000439,2025-12-22,CUST23971,Malang,Gg. Moch. Ramdan No. 64,-7.993815,112.661861,SKU-B,Beverage,24,55000,1320000,28.8
ORD000440,2025-12-20,CUST25929,Bandung,Gg. Dipatiukur No. 717,-6.918844,107.664822,SKU-D,PersonalCare,24,85000,2040000,36.0
ORD000441,2026-01-05,CUST11238,Bogor,Jl. Lembong No. 1,-6.600703,106.781069,SKU-C,Snack,18,15000,270000,3.6
ORD000442,2025-11-16,CUST26766,Yogyakarta,Gang Sadang Serang No. 976,-7.844514,110.403005,SKU-A,Powder,20,25000,500000,10.0
ORD000443,2026-01-16,CUST21420,Bogor,Gg. Stasiun Wonokromo No. 854,-6.628197,106.818819,SKU-D,PersonalCare,22,85000,1870000,33.0
ORD000444,2025-11-26,CUST01329,Bogor,Jalan Gardujati No. 719,-6.639591,106.773288,SKU-B,Beverage,14,55000,770000,16.8
ORD000445,2026-01-05,CUST21929,Semarang,Gang K.H. Wahid Hasyim No. 2,-6.992634,110.461118,SKU-C,Snack,22,15000,330000,4.4
ORD000446,2026-03-09,CUST08549,Tangerang,Gang Medokan Ayu No. 91,-6.152793,106.65589,SKU-A,Powder,38,25000,950000,19.0
ORD000447,2025-12-14,CUST07259,Bandung,Gg. W.R. Supratman No. 4,-6.894202,107.657179,SKU-B,Beverage,6,55000,330000,7.2
ORD000448,2026-01-09,CUST01116,Solo,Jalan PHH. Mustofa No. 067,-7.573111,110.804494,SKU-B,Beverage,5,55000,275000,6.0
ORD000449,2026-02-07,CUST23776,Serang,Jalan Laswi No. 557,-6.125481,106.131741,SKU-A,Powder,14,25000,350000,7.0
ORD000450,2025-12-11,CUST14030,Malang,Jl. Sukajadi No. 52,-7.965816,112.612828,SKU-C,Snack,19,15000,285000,3.8
ORD000451,2026-03-08,CUST25345,Bandung,Gang Tubagus Ismail No. 571,-6.956236,107.624176,SKU-C,Snack,37,15000,555000,7.4
ORD000452,2026-02-07,CUST22084,Semarang,Gg. Kiaracondong No. 967,-7.005855,110.404114,SKU-D,PersonalCare,20,85000,1700000,30.0
ORD000453,2026-04-04,CUST19220,Surabaya,Jl. Joyoboyo No. 8,-7.28238,112.721902,SKU-B,Beverage,22,55000,1210000,26.4
ORD000454,2026-01-01,CUST21753,Malang,Jl. Soekarno Hatta No. 8,-7.968343,112.590745,SKU-C,Snack,15,15000,225000,3.0
ORD000455,2026-04-24,CUST05567,Solo,Gg. Lembong No. 04,-7.60272,110.807245,SKU-C,Snack,35,15000,525000,7.0
ORD000456,2026-03-08,CUST22878,Solo,Jl. Stasiun Wonokromo No. 5,-7.590549,110.815213,SKU-D,PersonalCare,15,85000,1275000,22.5
ORD000457,2025-11-21,CUST05721,Jakarta,Gg. Dipenogoro No. 118,-6.258565,106.842306,SKU-B,Beverage,5,55000,275000,6.0
ORD000458,2025-12-23,CUST06641,Yogyakarta,Jl. S. Parman No. 041,-7.787214,110.327328,SKU-B,Beverage,10,55000,550000,12.0
ORD000459,2026-03-05,CUST25962,Cirebon,Jalan Jend. Sudirman No. 87,-6.713848,108.569934,SKU-B,Beverage,8,55000,440000,9.6
ORD000460,2026-04-14,CUST00126,Surabaya,Gang Yos Sudarso No. 2,-7.240811,112.737529,SKU-D,PersonalCare,40,85000,3400000,60.0
ORD000461,2026-01-18,CUST28256,Depok,Jl. Kebonjati No. 405,-6.353284,106.745158,SKU-B,Beverage,16,55000,880000,19.2
ORD000462,2026-03-19,CUST11053,Bandung,Gg. Rungkut Industri No. 0,-6.876587,107.610738,SKU-A,Powder,28,25000,700000,14.0
ORD000463,2026-01-13,CUST13999,Yogyakarta,Jl. Gardujati No. 0,-7.774126,110.408552,SKU-D,PersonalCare,18,85000,1530000,27.0
ORD000464,2025-12-08,CUST22730,Depok,Jl. BKR No. 606,-6.42403,106.837696,SKU-C,Snack,14,15000,210000,2.8
ORD000465,2025-11-28,CUST19335,Jember,Jalan Sadang Serang No. 33,-8.145308,113.690284,SKU-C,Snack,6,15000,90000,1.2
ORD000466,2025-11-27,CUST00141,Surabaya,Jalan Sukajadi No. 261,-7.273542,112.767737,SKU-C,Snack,16,15000,240000,3.2
ORD000467,2025-12-22,CUST06031,Solo,Gg. Rumah Sakit No. 00,-7.530703,110.867388,SKU-C,Snack,11,15000,165000,2.2
ORD000468,2025-11-13,CUST26100,Jakarta,Jalan Ciwastra No. 923,-6.232662,106.892918,SKU-B,Beverage,14,55000,770000,16.8
ORD000469,2025-11-22,CUST15881,Jakarta,Gang Ciumbuleuit No. 88,-6.206479,106.88612,SKU-A,Powder,8,25000,200000,4.0
ORD000470,2026-04-15,CUST00587,Tangerang,Jalan Jamika No. 331,-6.159263,106.609541,SKU-D,PersonalCare,38,85000,3230000,57.0
ORD000471,2026-02-12,CUST13659,Solo,Gang H.J Maemunah No. 12,-7.595933,110.811629,SKU-B,Beverage,15,55000,825000,18.0
ORD000472,2025-12-07,CUST26958,Yogyakarta,Jl. Cikutra Timur No. 3,-7.757719,110.37389,SKU-B,Beverage,21,55000,1155000,25.2
ORD000473,2026-03-19,CUST16694,Surabaya,Jalan Ahmad Yani No. 4,-7.269539,112.794499,SKU-B,Beverage,12,55000,660000,14.4
ORD000474,2026-01-01,CUST01692,Bandung,Jalan Sukajadi No. 1,-6.911078,107.662509,SKU-B,Beverage,15,55000,825000,18.0
ORD000475,2026-04-04,CUST26209,Yogyakarta,Gang Antapani Lama No. 009,-7.784686,110.381335,SKU-D,PersonalCare,30,85000,2550000,45.0
ORD000476,2026-04-14,CUST29254,Bandung,Jl. Waringin No. 31,-6.951434,107.657134,SKU-B,Beverage,13,55000,715000,15.6
ORD000477,2025-12-17,CUST17135,Semarang,Gg. W.R. Supratman No. 27,-6.991159,110.442836,SKU-A,Powder,15,25000,375000,7.5
ORD000478,2026-03-08,CUST20848,Jakarta,Jalan Rumah Sakit No. 288,-6.222521,106.854275,SKU-B,Beverage,16,55000,880000,19.2
ORD000479,2025-12-12,CUST09767,Bekasi,Jalan Soekarno Hatta No. 775,-6.227053,106.928414,SKU-D,PersonalCare,16,85000,1360000,24.0
ORD000480,2025-12-15,CUST19009,Yogyakarta,Jalan Peta No. 0,-7.836069,110.377386,SKU-C,Snack,6,15000,90000,1.2
ORD000481,2025-12-06,CUST14332,Surabaya,Jalan Medokan Ayu No. 5,-7.274502,112.709219,SKU-A,Powder,23,25000,575000,11.5
ORD000482,2025-12-21,CUST19389,Jember,Jl. Indragiri No. 10,-8.13132,113.731861,SKU-B,Beverage,13,55000,715000,15.6
ORD000483,2026-03-06,CUST03359,Bandung,Gang Veteran No. 35,-6.960241,107.577725,SKU-C,Snack,14,15000,210000,2.8
ORD000484,2026-02-16,CUST04544,Semarang,Gg. Otto Iskandardinata No. 309,-6.99394,110.372786,SKU-C,Snack,8,15000,120000,1.6
ORD000485,2025-11-09,CUST11057,Semarang,Jalan Ciwastra No. 32,-6.981034,110.369591,SKU-D,PersonalCare,5,85000,425000,7.5
ORD000486,2025-12-25,CUST10801,Jakarta,Gang KH Amin Jasuta No. 909,-6.208693,106.796452,SKU-A,Powder,31,25000,775000,15.5
ORD000487,2025-12-03,CUST06202,Jakarta,Gang Cikapayang No. 0,-6.246234,106.872864,SKU-D,PersonalCare,26,85000,2210000,39.0
ORD000488,2026-04-22,CUST24567,Bandung,Jalan Rajawali Barat No. 7,-6.899718,107.61621,SKU-B,Beverage,9,55000,495000,10.8
ORD000489,2026-03-12,CUST09197,Bandung,Gg. Sadang Serang No. 614,-6.949523,107.570561,SKU-B,Beverage,12,55000,660000,14.4
ORD000490,2026-03-11,CUST20931,Malang,Jalan Rawamangun No. 67,-7.918288,112.667013,SKU-B,Beverage,33,55000,1815000,39.6
ORD000491,2025-12-07,CUST29191,Tangerang,Gang Abdul Muis No. 9,-6.213798,106.582853,SKU-B,Beverage,16,55000,880000,19.2
ORD000492,2026-02-23,CUST12587,Solo,Jalan Pasir Koja No. 734,-7.555249,110.864599,SKU-B,Beverage,7,55000,385000,8.4
ORD000493,2026-01-11,CUST18647,Bogor,Jl. Ahmad Yani No. 0,-6.621443,106.820354,SKU-C,Snack,9,15000,135000,1.8
ORD000494,2026-02-10,CUST00355,Depok,Jalan Jend. Sudirman No. 093,-6.442065,106.831762,SKU-D,PersonalCare,10,85000,850000,15.0
ORD000495,2026-04-13,CUST10404,Solo,Jalan Yos Sudarso No. 249,-7.547605,110.785754,SKU-A,Powder,42,25000,1050000,21.0
ORD000496,2026-02-25,CUST18433,Jakarta,Jalan Jend. A. Yani No. 82,-6.252154,106.803823,SKU-B,Beverage,26,55000,1430000,31.2
ORD000497,2026-04-05,CUST27556,Jakarta,Gg. Gedebage Selatan No. 592,-6.220507,106.815353,SKU-A,Powder,9,25000,225000,4.5
ORD000498,2026-01-31,CUST22029,Surabaya,Jl. Ahmad Yani No. 76,-7.29124,112.792408,SKU-A,Powder,20,25000,500000,10.0
ORD000499,2026-01-15,CUST03247,Bogor,Gg. Bangka Raya No. 146,-6.563599,106.853424,SKU-C,Snack,21,15000,315000,4.2
ORD000500,2026-04-17,CUST02925,Surabaya,Gang Rajawali Timur No. 5,-7.300932,112.798913,SKU-A,Powder,35,25000,875000,17.5
ORD000501,2025-12-31,CUST13756,Bekasi,Jl. Rajawali Barat No. 3,-6.206578,106.96336,SKU-B,Beverage,16,55000,880000,19.2
ORD000502,2026-04-01,CUST27730,Cirebon,Gang Rungkut Industri No. 0,-6.726972,108.539813,SKU-D,PersonalCare,32,85000,2720000,48.0
ORD000503,2026-02-24,CUST07037,Solo,Gang Ciwastra No. 101,-7.573485,110.814863,SKU-B,Beverage,12,55000,660000,14.4
ORD000504,2026-04-05,CUST09068,Surabaya,Gg. Rajawali Timur No. 35,-7.307281,112.758975,SKU-C,Snack,26,15000,390000,5.2
ORD000505,2026-01-14,CUST11926,Surabaya,Gang KH Amin Jasuta No. 81,-7.292994,112.731213,SKU-B,Beverage,15,55000,825000,18.0
ORD000506,2026-01-16,CUST27679,Cirebon,Jl. Jend. A. Yani No. 954,-6.767078,108.53863,SKU-A,Powder,11,25000,275000,5.5
ORD000507,2026-03-28,CUST04165,Kediri,Jl. Moch. Ramdan No. 379,-7.816998,112.062527,SKU-D,PersonalCare,23,85000,1955000,34.5
ORD000508,2026-04-27,CUST17439,Cirebon,Gg. Cikutra Timur No. 0,-6.696938,108.512007,SKU-C,Snack,31,15000,465000,6.2
ORD000509,2026-01-14,CUST29207,Malang,Gg. Joyoboyo No. 9,-7.944142,112.612025,SKU-B,Beverage,11,55000,605000,13.2
ORD000510,2026-03-20,CUST16570,Surabaya,Gang Ciwastra No. 39,-7.220798,112.785964,SKU-D,PersonalCare,20,85000,1700000,30.0
ORD000511,2026-03-29,CUST11235,Bandung,Gang Cihampelas No. 7,-6.898007,107.603178,SKU-A,Powder,11,25000,275000,5.5
ORD000512,2026-01-19,CUST20919,Jember,Jl. Stasiun Wonokromo No. 9,-8.138379,113.677851,SKU-C,Snack,9,15000,135000,1.8
ORD000513,2025-11-12,CUST25045,Semarang,Gang Cihampelas No. 23,-6.958962,110.435277,SKU-A,Powder,16,25000,400000,8.0
ORD000514,2026-02-01,CUST06825,Surabaya,Jl. Siliwangi No. 549,-7.246707,112.797061,SKU-C,Snack,19,15000,285000,3.8
ORD000515,2025-11-25,CUST00718,Serang,Gg. Siliwangi No. 345,-6.115592,106.122902,SKU-C,Snack,26,15000,390000,5.2
ORD000516,2026-01-10,CUST03242,Tangerang,Gg. Waringin No. 7,-6.162287,106.649435,SKU-C,Snack,5,15000,75000,1.0
ORD000517,2026-03-05,CUST06673,Jember,Gang W.R. Supratman No. 48,-8.203153,113.745665,SKU-D,PersonalCare,33,85000,2805000,49.5
ORD000518,2025-12-07,CUST29354,Solo,Gg. Joyoboyo No. 6,-7.614719,110.868811,SKU-A,Powder,17,25000,425000,8.5
ORD000519,2026-02-22,CUST17713,Bandung,Gg. BKR No. 0,-6.966533,107.592615,SKU-A,Powder,17,25000,425000,8.5
ORD000520,2025-11-10,CUST02177,Serang,Jalan Setiabudhi No. 51,-6.109058,106.11269,SKU-D,PersonalCare,8,85000,680000,12.0
ORD000521,2026-02-05,CUST10746,Bandung,Gang PHH. Mustofa No. 25,-6.897501,107.644923,SKU-B,Beverage,23,55000,1265000,27.6
ORD000522,2026-04-10,CUST25837,Surabaya,Jalan Kebonjati No. 3,-7.284816,112.74843,SKU-B,Beverage,10,55000,550000,12.0
ORD000523,2025-12-29,CUST07108,Surabaya,Gang Medokan Ayu No. 546,-7.276133,112.782052,SKU-A,Powder,14,25000,350000,7.0
ORD000524,2026-01-17,CUST24373,Semarang,Jalan Jend. A. Yani No. 98,-6.976122,110.451314,SKU-C,Snack,20,15000,300000,4.0
ORD000525,2026-01-26,CUST14423,Bandung,Jl. Ciwastra No. 7,-6.912808,107.615639,SKU-C,Snack,19,15000,285000,3.8
ORD000526,2026-01-15,CUST18151,Malang,Jl. Otto Iskandardinata No. 11,-8.008509,112.640895,SKU-B,Beverage,26,55000,1430000,31.2
ORD000527,2026-01-29,CUST20007,Depok,Gang Cihampelas No. 261,-6.377725,106.781986,SKU-D,PersonalCare,7,85000,595000,10.5
ORD000528,2026-03-16,CUST15129,Cirebon,Jl. Cihampelas No. 1,-6.716996,108.568023,SKU-A,Powder,35,25000,875000,17.5
ORD000529,2025-11-16,CUST28993,Semarang,Jalan Joyoboyo No. 32,-6.972698,110.43144,SKU-A,Powder,12,25000,300000,6.0
ORD000530,2026-02-14,CUST28166,Surabaya,Gang Ciumbuleuit No. 4,-7.302447,112.73413,SKU-D,PersonalCare,22,85000,1870000,33.0
ORD000531,2025-12-19,CUST26155,Malang,Jl. Kapten Muslihat No. 86,-7.995026,112.680093,SKU-D,PersonalCare,8,85000,680000,12.0
ORD000532,2026-02-15,CUST11116,Tangerang,Jl. S. Parman No. 80,-6.209208,106.603962,SKU-D,PersonalCare,17,85000,1445000,25.5
ORD000533,2025-11-15,CUST05591,Malang,Jalan Jend. Sudirman No. 7,-7.943038,112.61356,SKU-D,PersonalCare,17,85000,1445000,25.5
ORD000534,2026-04-04,CUST10048,Serang,Gg. HOS. Cokroaminoto No. 699,-6.071557,106.199418,SKU-D,PersonalCare,26,85000,2210000,39.0
ORD000535,2026-01-30,CUST18184,Jakarta,Jalan Antapani Lama No. 696,-6.179307,106.846387,SKU-B,Beverage,5,55000,275000,6.0
ORD000536,2026-03-22,CUST08262,Bekasi,Jl. Cikutra Timur No. 797,-6.255924,106.998305,SKU-B,Beverage,20,55000,1100000,24.0
ORD000537,2026-04-30,CUST06198,Surabaya,Jl. Suryakencana No. 4,-7.2846,112.719967,SKU-B,Beverage,42,55000,2310000,50.4
ORD000538,2025-11-27,CUST12481,Bandung,Gg. Cihampelas No. 09,-6.923567,107.648818,SKU-C,Snack,17,15000,255000,3.4
ORD000539,2026-04-20,CUST10140,Jakarta,Jl. Ir. H. Djuanda No. 484,-6.210594,106.846603,SKU-A,Powder,17,25000,425000,8.5
ORD000540,2026-02-16,CUST05059,Bogor,Jalan Kendalsari No. 452,-6.640614,106.805083,SKU-C,Snack,24,15000,360000,4.8
ORD000541,2026-01-01,CUST07792,Surabaya,Gang Bangka Raya No. 61,-7.212695,112.794655,SKU-A,Powder,12,25000,300000,6.0
ORD000542,2025-12-05,CUST09991,Yogyakarta,Jalan Laswi No. 6,-7.773185,110.342719,SKU-A,Powder,9,25000,225000,4.5
ORD000543,2025-12-14,CUST19443,Bandung,Gg. Surapati No. 27,-6.961326,107.644879,SKU-D,PersonalCare,32,85000,2720000,48.0
ORD000544,2026-04-20,CUST22881,Surabaya,Jl. Cikutra Timur No. 8,-7.246878,112.798716,SKU-D,PersonalCare,10,85000,850000,15.0
ORD000545,2025-11-21,CUST04070,Depok,Jalan Jend. A. Yani No. 88,-6.404346,106.770218,SKU-C,Snack,21,15000,315000,4.2
ORD000546,2025-11-09,CUST14504,Surabaya,Gang HOS. Cokroaminoto No. 404,-7.280767,112.741555,SKU-D,PersonalCare,20,85000,1700000,30.0
ORD000547,2026-04-19,CUST16694,Surabaya,Jalan Ahmad Yani No. 4,-7.269539,112.794499,SKU-D,PersonalCare,40,85000,3400000,60.0
ORD000548,2026-04-13,CUST07810,Cirebon,Jl. Pasir Koja No. 95,-6.719095,108.551214,SKU-A,Powder,17,25000,425000,8.5
ORD000549,2025-12-10,CUST12463,Kediri,Gang Sukabumi No. 8,-7.848785,112.005795,SKU-D,PersonalCare,20,85000,1700000,30.0
ORD000550,2026-01-28,CUST22928,Yogyakarta,Jl. Bangka Raya No. 51,-7.789862,110.397739,SKU-B,Beverage,9,55000,495000,10.8
ORD000551,2025-11-17,CUST26391,Serang,Jl. Rumah Sakit No. 9,-6.166332,106.102628,SKU-D,PersonalCare,16,85000,1360000,24.0
ORD000552,2026-02-04,CUST24738,Depok,Gg. Joyoboyo No. 3,-6.433486,106.835402,SKU-A,Powder,16,25000,400000,8.0
ORD000553,2026-02-19,CUST16807,Tangerang,Gang Jend. A. Yani No. 68,-6.216825,106.61501,SKU-B,Beverage,6,55000,330000,7.2
ORD000554,2026-01-03,CUST07040,Cirebon,Gang Lembong No. 359,-6.6848,108.538121,SKU-A,Powder,5,25000,125000,2.5
ORD000555,2025-12-09,CUST23136,Semarang,Gang Jend. Sudirman No. 587,-7.016034,110.427146,SKU-D,PersonalCare,31,85000,2635000,46.5
ORD000556,2025-11-03,CUST10423,Depok,Gang Ciwastra No. 81,-6.440915,106.773041,SKU-D,PersonalCare,18,85000,1530000,27.0
ORD000557,2026-01-18,CUST22374,Cirebon,Jl. BKR No. 703,-6.764747,108.536728,SKU-C,Snack,13,15000,195000,2.6
ORD000558,2025-12-14,CUST19999,Yogyakarta,Gg. Ir. H. Djuanda No. 710,-7.808402,110.360794,SKU-A,Powder,16,25000,400000,8.0
ORD000559,2026-02-11,CUST25774,Bandung,Jalan Cikutra Timur No. 661,-6.898072,107.651404,SKU-C,Snack,24,15000,360000,4.8
ORD000560,2026-03-14,CUST13650,Kediri,Gang KH Amin Jasuta No. 384,-7.830475,111.98108,SKU-D,PersonalCare,31,85000,2635000,46.5
ORD000561,2026-02-08,CUST00011,Jember,Jalan Peta No. 03,-8.134169,113.652306,SKU-C,Snack,11,15000,165000,2.2
ORD000562,2026-03-19,CUST27098,Depok,Gg. Cikutra Barat No. 2,-6.389414,106.815687,SKU-A,Powder,36,25000,900000,18.0
ORD000563,2026-03-14,CUST07752,Yogyakarta,Gang Suniaraja No. 45,-7.805882,110.402144,SKU-C,Snack,34,15000,510000,6.8
ORD000564,2025-12-11,CUST26483,Semarang,Gang Dipenogoro No. 415,-6.927228,110.419671,SKU-C,Snack,14,15000,210000,2.8
ORD000565,2026-03-16,CUST06785,Jakarta,Gg. Jend. A. Yani No. 539,-6.233983,106.823872,SKU-C,Snack,35,15000,525000,7.0
ORD000566,2026-03-17,CUST23112,Tangerang,Gang Veteran No. 426,-6.141422,106.618826,SKU-A,Powder,10,25000,250000,5.0
ORD000567,2026-02-08,CUST22071,Malang,Gang Peta No. 94,-7.981455,112.676517,SKU-D,PersonalCare,14,85000,1190000,21.0
ORD000568,2026-03-06,CUST13593,Jember,Jl. Ronggowarsito No. 34,-8.12524,113.701053,SKU-A,Powder,42,25000,1050000,21.0
ORD000569,2026-01-14,CUST24509,Surabaya,Jalan Sukabumi No. 84,-7.237476,112.775321,SKU-A,Powder,8,25000,200000,4.0
ORD000570,2025-12-24,CUST21681,Jakarta,Jalan Suryakencana No. 976,-6.255365,106.846499,SKU-C,Snack,26,15000,390000,5.2
ORD000571,2026-01-22,CUST10470,Cirebon,Gang Surapati No. 8,-6.73114,108.505721,SKU-D,PersonalCare,19,85000,1615000,28.5
ORD000572,2025-12-01,CUST06249,Cirebon,Jl. Ahmad Dahlan No. 9,-6.745549,108.583619,SKU-A,Powder,18,25000,450000,9.0
ORD000573,2025-12-13,CUST02675,Malang,Jl. Soekarno Hatta No. 41,-7.973794,112.593873,SKU-B,Beverage,27,55000,1485000,32.4
ORD000574,2025-11-30,CUST20782,Semarang,Jl. Jend. A. Yani No. 06,-6.917531,110.389652,SKU-C,Snack,19,15000,285000,3.8
ORD000575,2026-01-29,CUST08708,Surabaya,Gg. Tubagus Ismail No. 8,-7.305418,112.745145,SKU-D,PersonalCare,22,85000,1870000,33.0
ORD000576,2025-11-26,CUST18982,Bogor,Jalan Cikutra Timur No. 5,-6.60283,106.826368,SKU-D,PersonalCare,5,85000,425000,7.5
ORD000577,2026-03-17,CUST12611,Bandung,Gang Dr. Djunjunan No. 56,-6.896108,107.603569,SKU-C,Snack,33,15000,495000,6.6
ORD000578,2025-11-29,CUST02298,Cirebon,Gang Bangka Raya No. 2,-6.781018,108.585504,SKU-A,Powder,16,25000,400000,8.0
ORD000579,2025-12-01,CUST00818,Solo,Gang Pacuan Kuda No. 39,-7.528751,110.838066,SKU-B,Beverage,26,55000,1430000,31.2
ORD000580,2025-11-01,CUST00831,Jakarta,Gang K.H. Wahid Hasyim No. 259,-6.230019,106.798095,SKU-C,Snack,20,15000,300000,4.0
ORD000581,2026-02-28,CUST26330,Yogyakarta,Gang Pelajar Pejuang No. 717,-7.770348,110.396602,SKU-D,PersonalCare,21,85000,1785000,31.5
ORD000582,2026-01-02,CUST12860,Jakarta,Gang Rajiman No. 67,-6.195722,106.803088,SKU-B,Beverage,5,55000,275000,6.0
ORD000583,2026-03-30,CUST03580,Bandung,Jl. Astana Anyar No. 2,-6.923933,107.598091,SKU-A,Powder,18,25000,450000,9.0
ORD000584,2026-04-14,CUST28936,Jakarta,Jalan Lembong No. 3,-6.25173,106.828613,SKU-D,PersonalCare,16,85000,1360000,24.0
ORD000585,2026-03-16,CUST26787,Jakarta,Jl. Dipatiukur No. 8,-6.217073,106.825292,SKU-C,Snack,30,15000,450000,6.0
ORD000586,2026-04-11,CUST14059,Malang,Gang Waringin No. 7,-7.934432,112.616154,SKU-B,Beverage,26,55000,1430000,31.2
ORD000587,2025-11-23,CUST09309,Yogyakarta,Gg. Jend. Sudirman No. 868,-7.781053,110.332778,SKU-D,PersonalCare,17,85000,1445000,25.5
ORD000588,2026-01-22,CUST21648,Semarang,Jalan Lembong No. 3,-6.972402,110.465189,SKU-D,PersonalCare,17,85000,1445000,25.5
ORD000589,2025-11-28,CUST25076,Solo,Gg. Ahmad Dahlan No. 06,-7.54663,110.828539,SKU-C,Snack,7,15000,105000,1.4
ORD000590,2026-04-30,CUST10473,Serang,Gang Moch. Toha No. 645,-6.155758,106.184676,SKU-C,Snack,21,15000,315000,4.2
ORD000591,2026-04-02,CUST18919,Semarang,Jl. Cempaka No. 7,-6.938686,110.453292,SKU-B,Beverage,8,55000,440000,9.6
ORD000592,2025-11-16,CUST19032,Cirebon,Jl. Pasirkoja No. 14,-6.7487,108.574847,SKU-A,Powder,27,25000,675000,13.5
ORD000593,2025-12-30,CUST22885,Yogyakarta,Jalan W.R. Supratman No. 108,-7.789311,110.372145,SKU-B,Beverage,17,55000,935000,20.4
ORD000594,2025-12-02,CUST21414,Yogyakarta,Jalan Indragiri No. 2,-7.789794,110.376021,SKU-D,PersonalCare,30,85000,2550000,45.0
ORD000595,2025-11-15,CUST17160,Surabaya,Jl. Waringin No. 248,-7.209838,112.774324,SKU-D,PersonalCare,9,85000,765000,13.5
ORD000596,2026-04-13,CUST16105,Surabaya,Gang M.H Thamrin No. 685,-7.262908,112.738976,SKU-D,PersonalCare,8,85000,680000,12.0
ORD000597,2025-12-26,CUST19754,Yogyakarta,Gang Astana Anyar No. 7,-7.843291,110.404588,SKU-B,Beverage,17,55000,935000,20.4
ORD000598,2026-01-20,CUST29404,Jember,Jl. Suryakencana No. 978,-8.207886,113.669635,SKU-C,Snack,11,15000,165000,2.2
ORD000599,2025-11-28,CUST12917,Semarang,Gang Kutisari Selatan No. 453,-6.995361,110.385381,SKU-C,Snack,25,15000,375000,5.0
ORD000600,2025-12-26,CUST00678,Jakarta,Gang Kapten Muslihat No. 014,-6.210082,106.865343,SKU-C,Snack,18,15000,270000,3.6
ORD000601,2026-01-10,CUST05206,Yogyakarta,Gang K.H. Wahid Hasyim No. 8,-7.766819,110.384965,SKU-C,Snack,11,15000,165000,2.2
ORD000602,2025-11-10,CUST15733,Yogyakarta,Jl. Tubagus Ismail No. 655,-7.845463,110.33988,SKU-C,Snack,19,15000,285000,3.8
ORD000603,2026-02-10,CUST14596,Bogor,Jalan Cihampelas No. 543,-6.588801,106.860298,SKU-C,Snack,25,15000,375000,5.0
ORD000604,2026-02-20,CUST19782,Tangerang,Gg. BKR No. 63,-6.155394,106.652794,SKU-C,Snack,7,15000,105000,1.4
ORD000605,2026-04-20,CUST02785,Jakarta,Jl. BKR No. 869,-6.228811,106.868075,SKU-C,Snack,28,15000,420000,5.6
ORD000606,2026-03-30,CUST22625,Bandung,Gg. Astana Anyar No. 567,-6.916683,107.633963,SKU-A,Powder,25,25000,625000,12.5
ORD000607,2026-02-17,CUST10889,Serang,Gang Pelajar Pejuang No. 5,-6.119032,106.146747,SKU-C,Snack,7,15000,105000,1.4
ORD000608,2025-11-28,CUST17215,Bogor,Jl. Pasir Koja No. 603,-6.567152,106.809467,SKU-B,Beverage,22,55000,1210000,26.4
ORD000609,2025-12-12,CUST14466,Yogyakarta,Gg. Pacuan Kuda No. 525,-7.786518,110.373912,SKU-A,Powder,34,25000,850000,17.0
ORD000610,2025-12-17,CUST04799,Surabaya,Jl. KH Amin Jasuta No. 20,-7.266474,112.710274,SKU-C,Snack,14,15000,210000,2.8
ORD000611,2026-01-14,CUST22376,Semarang,Gg. Lembong No. 35,-6.975485,110.401677,SKU-A,Powder,9,25000,225000,4.5
ORD000612,2026-02-26,CUST29564,Yogyakarta,Jl. Pasir Koja No. 7,-7.761454,110.382507,SKU-B,Beverage,20,55000,1100000,24.0
ORD000613,2025-12-09,CUST29393,Depok,Jl. Veteran No. 907,-6.392296,106.783087,SKU-D,PersonalCare,29,85000,2465000,43.5
ORD000614,2026-02-25,CUST21455,Surabaya,Gg. Jakarta No. 950,-7.248903,112.765515,SKU-D,PersonalCare,7,85000,595000,10.5
ORD000615,2026-03-15,CUST21727,Semarang,Jalan PHH. Mustofa No. 50,-6.964811,110.443126,SKU-C,Snack,10,15000,150000,2.0
ORD000616,2026-01-09,CUST20166,Bandung,Jl. Rumah Sakit No. 595,-6.943546,107.585465,SKU-B,Beverage,4,55000,220000,4.8
ORD000617,2026-02-27,CUST14615,Surabaya,Jl. Ronggowarsito No. 4,-7.276369,112.761174,SKU-C,Snack,15,15000,225000,3.0
ORD000618,2026-04-04,CUST00661,Semarang,Gang Jend. Sudirman No. 7,-6.967744,110.430837,SKU-D,PersonalCare,35,85000,2975000,52.5
ORD000619,2026-04-12,CUST18599,Malang,Jalan Sukabumi No. 30,-7.950466,112.589863,SKU-B,Beverage,39,55000,2145000,46.8
ORD000620,2025-12-20,CUST18391,Semarang,Gang Laswi No. 6,-6.950138,110.391454,SKU-B,Beverage,22,55000,1210000,26.4
ORD000621,2026-02-22,CUST08553,Malang,Gg. Ronggowarsito No. 8,-7.988305,112.622773,SKU-B,Beverage,11,55000,605000,13.2
ORD000622,2025-12-06,CUST26701,Malang,Gang Raya Setiabudhi No. 668,-7.996203,112.637306,SKU-B,Beverage,28,55000,1540000,33.6
ORD000623,2025-11-13,CUST15054,Jakarta,Gang Kiaracondong No. 529,-6.246836,106.872924,SKU-B,Beverage,15,55000,825000,18.0
ORD000624,2025-11-18,CUST26430,Surabaya,Jl. W.R. Supratman No. 9,-7.225376,112.750477,SKU-D,PersonalCare,22,85000,1870000,33.0
ORD000625,2025-11-27,CUST08496,Kediri,Jalan Suniaraja No. 50,-7.818836,112.0328,SKU-C,Snack,6,15000,90000,1.2
ORD000626,2026-03-04,CUST15178,Bogor,Jl. Kiaracondong No. 143,-6.631032,106.835077,SKU-A,Powder,23,25000,575000,11.5
ORD000627,2026-01-18,CUST08746,Bekasi,Gg. Peta No. 5,-6.249012,107.000161,SKU-C,Snack,21,15000,315000,4.2
ORD000628,2025-12-25,CUST19855,Semarang,Gang Kendalsari No. 44,-7.003145,110.377347,SKU-C,Snack,24,15000,360000,4.8
ORD000629,2025-11-19,CUST25254,Semarang,Gang Raya Ujungberung No. 4,-7.008645,110.396206,SKU-C,Snack,10,15000,150000,2.0
ORD000630,2026-04-12,CUST22435,Jakarta,Gang Sentot Alibasa No. 7,-6.170553,106.798792,SKU-A,Powder,14,25000,350000,7.0
ORD000631,2026-04-06,CUST22027,Jakarta,Gg. Ir. H. Djuanda No. 6,-6.165617,106.857596,SKU-D,PersonalCare,20,85000,1700000,30.0
ORD000632,2026-02-11,CUST12480,Semarang,Gg. Raya Ujungberung No. 269,-6.942558,110.390004,SKU-B,Beverage,5,55000,275000,6.0
ORD000633,2025-12-14,CUST27457,Jakarta,Jl. Asia Afrika No. 91,-6.212557,106.800744,SKU-A,Powder,30,25000,750000,15.0
ORD000634,2025-11-15,CUST28267,Jakarta,Gang Asia Afrika No. 58,-6.200804,106.88806,SKU-C,Snack,20,15000,300000,4.0
ORD000635,2026-03-24,CUST18842,Jakarta,Gg. Rajawali Barat No. 2,-6.200491,106.822844,SKU-D,PersonalCare,16,85000,1360000,24.0
ORD000636,2025-12-06,CUST20983,Solo,Gg. Moch. Ramdan No. 3,-7.553074,110.865955,SKU-A,Powder,5,25000,125000,2.5
ORD000637,2026-01-10,CUST24135,Semarang,Jalan M.H Thamrin No. 67,-6.968436,110.443255,SKU-B,Beverage,6,55000,330000,7.2
ORD000638,2025-12-15,CUST23527,Tangerang,Jl. Waringin No. 62,-6.149704,106.676218,SKU-B,Beverage,14,55000,770000,16.8
ORD000639,2026-03-03,CUST29651,Solo,Jl. Siliwangi No. 700,-7.557943,110.819279,SKU-D,PersonalCare,12,85000,1020000,18.0
ORD000640,2026-04-19,CUST21141,Surabaya,Gang R.E Martadinata No. 8,-7.304316,112.775037,SKU-D,PersonalCare,40,85000,3400000,60.0
ORD000641,2025-12-06,CUST25324,Semarang,Gg. Cihampelas No. 621,-6.955873,110.40095,SKU-D,PersonalCare,16,85000,1360000,24.0
ORD000642,2026-04-21,CUST24212,Bekasi,Jl. Cihampelas No. 8,-6.274603,106.937011,SKU-D,PersonalCare,8,85000,680000,12.0
ORD000643,2025-12-04,CUST14135,Semarang,Jl. Joyoboyo No. 28,-6.926496,110.422274,SKU-D,PersonalCare,11,85000,935000,16.5
ORD000644,2026-03-15,CUST03321,Depok,Gg. Sentot Alibasa No. 4,-6.441869,106.761479,SKU-C,Snack,20,15000,300000,4.0
ORD000645,2026-01-09,CUST03572,Cirebon,Gang KH Amin Jasuta No. 635,-6.735486,108.536443,SKU-A,Powder,17,25000,425000,8.5
ORD000646,2026-02-26,CUST25214,Bekasi,Gang Antapani Lama No. 1,-6.256424,106.990534,SKU-D,PersonalCare,22,85000,1870000,33.0
ORD000647,2026-02-08,CUST17105,Jakarta,Jalan K.H. Wahid Hasyim No. 655,-6.254737,106.827041,SKU-C,Snack,20,15000,300000,4.0
ORD000648,2025-12-07,CUST01607,Solo,Gg. Soekarno Hatta No. 7,-7.593356,110.864071,SKU-C,Snack,26,15000,390000,5.2
ORD000649,2025-12-04,CUST09200,Solo,Jalan Rajawali Timur No. 03,-7.556019,110.814724,SKU-A,Powder,6,25000,150000,3.0
ORD000650,2026-04-08,CUST05696,Surabaya,Gg. Cihampelas No. 2,-7.238793,112.736546,SKU-A,Powder,23,25000,575000,11.5
ORD000651,2025-12-29,CUST16319,Malang,Gang Surapati No. 31,-7.964019,112.643811,SKU-C,Snack,5,15000,75000,1.0
ORD000652,2026-04-29,CUST21137,Malang,Jalan Tebet Barat Dalam No. 6,-7.922487,112.678829,SKU-A,Powder,10,25000,250000,5.0
ORD000653,2026-03-26,CUST25371,Semarang,Gg. Tebet Barat Dalam No. 472,-6.986478,110.369089,SKU-C,Snack,34,15000,510000,6.8
ORD000654,2025-12-18,CUST24733,Jakarta,Jalan Astana Anyar No. 310,-6.187699,106.820866,SKU-B,Beverage,17,55000,935000,20.4
ORD000655,2026-01-22,CUST17552,Surabaya,Jl. HOS. Cokroaminoto No. 781,-7.263118,112.781516,SKU-B,Beverage,7,55000,385000,8.4
ORD000656,2026-03-05,CUST01679,Surabaya,Gg. PHH. Mustofa No. 7,-7.284189,112.784104,SKU-C,Snack,18,15000,270000,3.6
ORD000657,2026-03-06,CUST11817,Bandung,Jl. Bangka Raya No. 76,-6.878562,107.58119,SKU-D,PersonalCare,23,85000,1955000,34.5
ORD000658,2025-12-18,CUST14643,Semarang,Jalan Stasiun Wonokromo No. 26,-7.01407,110.38761,SKU-B,Beverage,34,55000,1870000,40.8
ORD000659,2025-11-30,CUST09904,Cirebon,Gg. Setiabudhi No. 678,-6.76982,108.588103,SKU-A,Powder,23,25000,575000,11.5
ORD000660,2026-02-21,CUST00727,Bogor,Jl. Gegerkalong Hilir No. 718,-6.573087,106.821807,SKU-D,PersonalCare,14,85000,1190000,21.0
ORD000661,2025-11-16,CUST23869,Jember,Jl. M.T Haryono No. 47,-8.171162,113.664591,SKU-A,Powder,9,25000,225000,4.5
ORD000662,2026-01-20,CUST06506,Semarang,Jalan Cempaka No. 78,-7.000098,110.449249,SKU-B,Beverage,5,55000,275000,6.0
ORD000663,2026-04-27,CUST17193,Yogyakarta,Jl. Sukabumi No. 0,-7.772247,110.329711,SKU-A,Powder,32,25000,800000,16.0
ORD000664,2026-03-17,CUST21414,Yogyakarta,Jalan Indragiri No. 2,-7.789794,110.376021,SKU-B,Beverage,35,55000,1925000,42.0
ORD000665,2026-01-05,CUST17523,Surabaya,Jl. Yos Sudarso No. 573,-7.301226,112.724557,SKU-B,Beverage,21,55000,1155000,25.2
ORD000666,2026-02-19,CUST00003,Bandung,Gang Monginsidi No. 4,-6.919953,107.580943,SKU-C,Snack,16,15000,240000,3.2
ORD000667,2026-03-23,CUST17671,Tangerang,Jl. Kutisari Selatan No. 78,-6.200947,106.598455,SKU-A,Powder,26,25000,650000,13.0
ORD000668,2026-03-01,CUST17219,Solo,Jl. Rajiman No. 42,-7.622976,110.852232,SKU-C,Snack,22,15000,330000,4.4
ORD000669,2026-04-08,CUST02390,Semarang,Jalan Erlangga No. 93,-6.946931,110.394025,SKU-A,Powder,16,25000,400000,8.0
ORD000670,2026-04-05,CUST05935,Jember,Jl. Kutisari Selatan No. 810,-8.153014,113.664243,SKU-D,PersonalCare,19,85000,1615000,28.5
ORD000671,2026-01-28,CUST02717,Jakarta,Jalan Dipatiukur No. 669,-6.202823,106.812915,SKU-C,Snack,11,15000,165000,2.2
ORD000672,2026-04-17,CUST09813,Solo,Jalan K.H. Wahid Hasyim No. 8,-7.580469,110.824787,SKU-B,Beverage,23,55000,1265000,27.6
ORD000673,2026-01-12,CUST20877,Malang,Jalan Setiabudhi No. 5,-8.016164,112.662388,SKU-C,Snack,20,15000,300000,4.0
ORD000674,2025-11-16,CUST23533,Semarang,Jalan W.R. Supratman No. 901,-6.956637,110.405102,SKU-C,Snack,7,15000,105000,1.4
ORD000675,2026-03-27,CUST28219,Bogor,Jl. Laswi No. 49,-6.549731,106.832412,SKU-D,PersonalCare,24,85000,2040000,36.0
ORD000676,2026-03-14,CUST10929,Surabaya,Gg. Cihampelas No. 0,-7.293082,112.715858,SKU-A,Powder,37,25000,925000,18.5
ORD000677,2026-03-31,CUST17031,Jakarta,Jl. Waringin No. 98,-6.224509,106.862442,SKU-A,Powder,18,25000,450000,9.0
ORD000678,2026-01-05,CUST15038,Jakarta,Gg. Gedebage Selatan No. 8,-6.247322,106.876994,SKU-A,Powder,6,25000,150000,3.0
ORD000679,2026-04-12,CUST17609,Tangerang,Gang Tubagus Ismail No. 1,-6.204404,106.60876,SKU-C,Snack,13,15000,195000,2.6
ORD000680,2026-02-24,CUST02383,Solo,Gang Jamika No. 960,-7.594161,110.874036,SKU-D,PersonalCare,13,85000,1105000,19.5
ORD000681,2025-12-31,CUST22527,Malang,Gang Kapten Muslihat No. 339,-7.933644,112.646358,SKU-C,Snack,7,15000,105000,1.4
ORD000682,2026-02-05,CUST27585,Depok,Gg. Cempaka No. 8,-6.37549,106.793082,SKU-A,Powder,17,25000,425000,8.5
ORD000683,2026-01-07,CUST26751,Malang,Jalan Sukabumi No. 85,-7.919341,112.616395,SKU-D,PersonalCare,8,85000,680000,12.0
ORD000684,2026-01-19,CUST03353,Bandung,Gang Pasteur No. 0,-6.870115,107.614862,SKU-D,PersonalCare,24,85000,2040000,36.0
ORD000685,2026-03-12,CUST02068,Bandung,Jalan Otto Iskandardinata No. 646,-6.930876,107.63936,SKU-A,Powder,11,25000,275000,5.5
ORD000686,2026-02-07,CUST05155,Semarang,Gg. Jayawijaya No. 27,-6.940887,110.44774,SKU-B,Beverage,13,55000,715000,15.6
ORD000687,2026-01-12,CUST25037,Solo,Gang Lembong No. 0,-7.607465,110.833701,SKU-B,Beverage,9,55000,495000,10.8
ORD000688,2026-02-22,CUST13385,Yogyakarta,Jl. Siliwangi No. 06,-7.82687,110.331392,SKU-A,Powder,10,25000,250000,5.0
ORD000689,2026-04-17,CUST28418,Semarang,Gg. Ir. H. Djuanda No. 87,-6.948654,110.429874,SKU-D,PersonalCare,13,85000,1105000,19.5
ORD000690,2026-03-24,CUST00835,Kediri,Jalan Cihampelas No. 2,-7.860943,112.034052,SKU-A,Powder,32,25000,800000,16.0
ORD000691,2026-04-11,CUST21396,Solo,Gang Cihampelas No. 50,-7.599911,110.85837,SKU-D,PersonalCare,38,85000,3230000,57.0
ORD000692,2025-12-14,CUST28607,Bogor,Gang S. Parman No. 5,-6.630549,106.772008,SKU-C,Snack,26,15000,390000,5.2
ORD000693,2026-01-11,CUST09948,Jakarta,Jl. HOS. Cokroaminoto No. 961,-6.203888,106.798439,SKU-C,Snack,10,15000,150000,2.0
ORD000694,2026-02-05,CUST09998,Jember,Jl. Bangka Raya No. 7,-8.200883,113.705431,SKU-A,Powder,19,25000,475000,9.5
ORD000695,2026-03-16,CUST11195,Jakarta,Gang Stasiun Wonokromo No. 976,-6.190358,106.872585,SKU-B,Beverage,8,55000,440000,9.6
ORD000696,2025-12-22,CUST11724,Malang,Gg. K.H. Wahid Hasyim No. 05,-7.975022,112.638409,SKU-B,Beverage,15,55000,825000,18.0
ORD000697,2025-11-26,CUST20098,Jakarta,Jalan Rajiman No. 558,-6.204508,106.814496,SKU-D,PersonalCare,21,85000,1785000,31.5
ORD000698,2025-12-26,CUST16775,Surabaya,Jalan Peta No. 4,-7.238136,112.706597,SKU-D,PersonalCare,22,85000,1870000,33.0
ORD000699,2025-11-12,CUST23984,Bandung,Jl. Pasirkoja No. 98,-6.959265,107.583263,SKU-D,PersonalCare,10,85000,850000,15.0
ORD000700,2025-11-22,CUST11799,Semarang,Jl. Indragiri No. 498,-6.920306,110.435155,SKU-A,Powder,15,25000,375000,7.5
ORD000701,2026-04-14,CUST23376,Surabaya,Jalan Sukabumi No. 20,-7.250241,112.74495,SKU-A,Powder,28,25000,700000,14.0
ORD000702,2025-12-20,CUST10759,Bogor,Gg. Dipatiukur No. 596,-6.561887,106.788834,SKU-C,Snack,25,15000,375000,5.0
ORD000703,2026-01-03,CUST24600,Yogyakarta,Gang Monginsidi No. 1,-7.808114,110.328923,SKU-D,PersonalCare,17,85000,1445000,25.5
ORD000704,2026-04-20,CUST10229,Tangerang,Gg. Sukabumi No. 23,-6.145455,106.634699,SKU-B,Beverage,10,55000,550000,12.0
ORD000705,2025-11-14,CUST11405,Malang,Gang Abdul Muis No. 4,-7.978834,112.638343,SKU-A,Powder,22,25000,550000,11.0
ORD000706,2025-12-16,CUST29836,Jember,Jl. Rajawali Barat No. 2,-8.210824,113.710784,SKU-C,Snack,10,15000,150000,2.0
ORD000707,2026-02-28,CUST09499,Tangerang,Jl. Dipatiukur No. 68,-6.162253,106.614397,SKU-B,Beverage,4,55000,220000,4.8
ORD000708,2026-02-17,CUST28407,Jember,Jalan Jakarta No. 3,-8.21454,113.712635,SKU-A,Powder,21,25000,525000,10.5
ORD000709,2025-12-31,CUST07689,Jember,Gg. Monginsidi No. 02,-8.125338,113.706824,SKU-D,PersonalCare,23,85000,1955000,34.5
ORD000710,2025-12-22,CUST23660,Bandung,Jl. Jend. Sudirman No. 12,-6.914725,107.631207,SKU-C,Snack,20,15000,300000,4.0
ORD000711,2025-12-25,CUST18614,Jakarta,Jl. R.E Martadinata No. 9,-6.187242,106.803557,SKU-A,Powder,31,25000,775000,15.5
ORD000712,2026-03-15,CUST12284,Jakarta,Jalan Bangka Raya No. 73,-6.177748,106.810354,SKU-D,PersonalCare,15,85000,1275000,22.5
ORD000713,2026-03-28,CUST20577,Surabaya,Gang Rajawali Barat No. 71,-7.229352,112.779813,SKU-C,Snack,19,15000,285000,3.8
ORD000714,2026-02-13,CUST19480,Semarang,Gang Merdeka No. 34,-6.944706,110.421104,SKU-D,PersonalCare,19,85000,1615000,28.5
ORD000715,2025-11-26,CUST07325,Jakarta,Gang Soekarno Hatta No. 3,-6.170722,106.813166,SKU-A,Powder,11,25000,275000,5.5
ORD000716,2025-12-15,CUST00441,Serang,Jl. Ahmad Dahlan No. 44,-6.129992,106.200085,SKU-B,Beverage,17,55000,935000,20.4
ORD000717,2026-01-25,CUST00732,Bogor,Gang W.R. Supratman No. 5,-6.58646,106.859508,SKU-A,Powder,26,25000,650000,13.0
ORD000718,2026-04-12,CUST29794,Bandung,Jl. PHH. Mustofa No. 19,-6.896793,107.664155,SKU-D,PersonalCare,23,85000,1955000,34.5
ORD000719,2025-11-20,CUST12403,Yogyakarta,Jl. Kutisari Selatan No. 951,-7.785225,110.321059,SKU-A,Powder,6,25000,150000,3.0
ORD000720,2026-04-10,CUST11024,Surabaya,Jalan Cihampelas No. 9,-7.229805,112.775146,SKU-B,Beverage,13,55000,715000,15.6
ORD000721,2026-03-04,CUST27766,Bandung,Gang Monginsidi No. 35,-6.876286,107.628105,SKU-B,Beverage,16,55000,880000,19.2
ORD000722,2025-12-21,CUST02912,Kediri,Jalan Kutai No. 833,-7.798911,112.065307,SKU-A,Powder,27,25000,675000,13.5
ORD000723,2026-02-09,CUST25345,Bandung,Gang Tubagus Ismail No. 571,-6.956236,107.624176,SKU-A,Powder,19,25000,475000,9.5
ORD000724,2026-02-26,CUST12180,Depok,Jl. Yos Sudarso No. 7,-6.415544,106.82822,SKU-B,Beverage,25,55000,1375000,30.0
ORD000725,2026-01-28,CUST01064,Bogor,Jalan M.H Thamrin No. 3,-6.547626,106.865835,SKU-A,Powder,17,25000,425000,8.5
ORD000726,2026-04-07,CUST07982,Jember,Jl. Joyoboyo No. 0,-8.131077,113.667044,SKU-C,Snack,13,15000,195000,2.6
ORD000727,2025-11-15,CUST06657,Jakarta,Gang Medokan Ayu No. 1,-6.188463,106.831516,SKU-C,Snack,13,15000,195000,2.6
ORD000728,2026-04-14,CUST03407,Bekasi,Jl. Medokan Ayu No. 58,-6.188711,106.957722,SKU-C,Snack,22,15000,330000,4.4
ORD000729,2025-12-07,CUST28301,Bandung,Gang S. Parman No. 1,-6.924853,107.573712,SKU-B,Beverage,17,55000,935000,20.4
ORD000730,2025-12-11,CUST06869,Solo,Jalan Sentot Alibasa No. 443,-7.568267,110.81442,SKU-C,Snack,20,15000,300000,4.0
ORD000731,2026-01-13,CUST25657,Jember,Jl. Erlangga No. 973,-8.18913,113.695219,SKU-B,Beverage,23,55000,1265000,27.6
ORD000732,2026-04-21,CUST19704,Malang,Gg. Raya Ujungberung No. 3,-8.003425,112.638377,SKU-A,Powder,23,25000,575000,11.5
ORD000733,2026-02-11,CUST03716,Cirebon,Jl. Setiabudhi No. 252,-6.731857,108.6015,SKU-A,Powder,13,25000,325000,6.5
ORD000734,2026-04-22,CUST24288,Bogor,Gang Ahmad Yani No. 4,-6.633459,106.790479,SKU-B,Beverage,18,55000,990000,21.6
ORD000735,2026-02-04,CUST20919,Jember,Jl. Stasiun Wonokromo No. 9,-8.138379,113.677851,SKU-D,PersonalCare,19,85000,1615000,28.5
ORD000736,2026-01-16,CUST20016,Semarang,Jalan M.T Haryono No. 71,-6.962233,110.408257,SKU-C,Snack,4,15000,60000,0.8
ORD000737,2026-01-11,CUST20437,Semarang,Gang Pasirkoja No. 9,-6.972065,110.460996,SKU-A,Powder,22,25000,550000,11.0
ORD000738,2025-11-22,CUST11260,Bandung,Jalan Bangka Raya No. 89,-6.931207,107.631695,SKU-D,PersonalCare,11,85000,935000,16.5
ORD000739,2025-11-20,CUST28963,Solo,Jalan Stasiun Wonokromo No. 08,-7.604363,110.806302,SKU-B,Beverage,18,55000,990000,21.6
ORD000740,2025-11-04,CUST19653,Depok,Gg. Laswi No. 16,-6.398943,106.767894,SKU-B,Beverage,17,55000,935000,20.4
ORD000741,2025-11-06,CUST22447,Bandung,Jalan H.J Maemunah No. 543,-6.907279,107.662533,SKU-A,Powder,10,25000,250000,5.0
ORD000742,2025-11-28,CUST06233,Yogyakarta,Gg. Sukabumi No. 2,-7.765788,110.340875,SKU-B,Beverage,5,55000,275000,6.0
ORD000743,2025-12-31,CUST02954,Jember,Gang Cikutra Timur No. 82,-8.205671,113.656154,SKU-D,PersonalCare,29,85000,2465000,43.5
ORD000744,2026-01-28,CUST09918,Bandung,Jalan Yos Sudarso No. 272,-6.873419,107.56981,SKU-A,Powder,17,25000,425000,8.5
ORD000745,2025-11-07,CUST09591,Tangerang,Gang Cihampelas No. 99,-6.21218,106.615249,SKU-D,PersonalCare,12,85000,1020000,18.0
ORD000746,2026-04-14,CUST28500,Jakarta,Gang Rajawali Timur No. 640,-6.189548,106.881481,SKU-D,PersonalCare,11,85000,935000,16.5
ORD000747,2026-01-28,CUST24472,Bogor,Jalan M.H Thamrin No. 07,-6.610117,106.837011,SKU-D,PersonalCare,21,85000,1785000,31.5
ORD000748,2026-04-15,CUST04745,Bandung,Jalan Suniaraja No. 75,-6.90678,107.663265,SKU-D,PersonalCare,30,85000,2550000,45.0
ORD000749,2026-02-14,CUST02233,Jakarta,Gang Kebonjati No. 2,-6.165111,106.833503,SKU-D,PersonalCare,27,85000,2295000,40.5
ORD000750,2026-03-29,CUST06751,Jakarta,Jl. M.H Thamrin No. 616,-6.224232,106.840315,SKU-C,Snack,32,15000,480000,6.4
ORD000751,2026-03-16,CUST05339,Surabaya,Gg. Stasiun Wonokromo No. 44,-7.300599,112.778306,SKU-D,PersonalCare,20,85000,1700000,30.0
ORD000752,2025-12-23,CUST15992,Depok,Jalan Raya Ujungberung No. 021,-6.444596,106.748768,SKU-A,Powder,32,25000,800000,16.0
ORD000753,2026-04-26,CUST00709,Bekasi,Gang Merdeka No. 9,-6.278196,106.944026,SKU-B,Beverage,15,55000,825000,18.0
ORD000754,2025-12-26,CUST22391,Depok,Gg. Jayawijaya No. 30,-6.394372,106.819781,SKU-B,Beverage,19,55000,1045000,22.8
ORD000755,2026-01-25,CUST28144,Depok,Gg. Rumah Sakit No. 7,-6.3938,106.803271,SKU-D,PersonalCare,22,85000,1870000,33.0
ORD000756,2026-04-28,CUST22519,Malang,Jalan Tubagus Ismail No. 590,-7.947369,112.643859,SKU-B,Beverage,32,55000,1760000,38.4
ORD000757,2026-04-13,CUST01844,Solo,Gg. Peta No. 71,-7.587669,110.791336,SKU-D,PersonalCare,37,85000,3145000,55.5
ORD000758,2026-04-06,CUST11618,Jakarta,Jl. Pasirkoja No. 88,-6.190038,106.849516,SKU-A,Powder,29,25000,725000,14.5
ORD000759,2025-12-28,CUST16939,Serang,Jalan Pasir Koja No. 98,-6.09423,106.193816,SKU-D,PersonalCare,23,85000,1955000,34.5
ORD000760,2025-12-10,CUST23226,Jakarta,Gg. Rajawali Barat No. 14,-6.16995,106.838857,SKU-C,Snack,15,15000,225000,3.0
ORD000761,2025-11-25,CUST01226,Semarang,Gg. Cikutra Timur No. 8,-6.939928,110.460823,SKU-A,Powder,15,25000,375000,7.5
ORD000762,2026-02-01,CUST27394,Jakarta,Jl. Gardujati No. 97,-6.17095,106.800798,SKU-B,Beverage,17,55000,935000,20.4
ORD000763,2026-03-30,CUST28313,Solo,Jl. Yos Sudarso No. 9,-7.538388,110.794064,SKU-B,Beverage,13,55000,715000,15.6
ORD000764,2026-01-17,CUST04017,Bogor,Gg. Rajawali Timur No. 749,-6.598726,106.791662,SKU-D,PersonalCare,12,85000,1020000,18.0
ORD000765,2026-04-12,CUST21801,Jakarta,Gg. Dr. Djunjunan No. 61,-6.162587,106.842873,SKU-C,Snack,20,15000,300000,4.0
ORD000766,2025-11-16,CUST09545,Surabaya,Gg. H.J Maemunah No. 93,-7.285531,112.718495,SKU-B,Beverage,10,55000,550000,12.0
ORD000767,2025-12-11,CUST06682,Malang,Jalan W.R. Supratman No. 69,-7.97677,112.663509,SKU-B,Beverage,5,55000,275000,6.0
ORD000768,2025-11-17,CUST29010,Bandung,Jl. Jamika No. 5,-6.936509,107.667595,SKU-D,PersonalCare,12,85000,1020000,18.0
ORD000769,2026-02-14,CUST07188,Bandung,Gg. Jend. Sudirman No. 50,-6.885513,107.631307,SKU-B,Beverage,7,55000,385000,8.4
ORD000770,2026-02-26,CUST02179,Cirebon,Gang Rajawali Timur No. 386,-6.726124,108.573278,SKU-A,Powder,6,25000,150000,3.0
ORD000771,2026-03-12,CUST12307,Bandung,Gg. Ahmad Yani No. 778,-6.897142,107.653648,SKU-A,Powder,24,25000,600000,12.0
ORD000772,2026-02-25,CUST11031,Kediri,Jalan Cikutra Barat No. 2,-7.835458,111.973362,SKU-C,Snack,14,15000,210000,2.8
ORD000773,2026-04-06,CUST00417,Yogyakarta,Jl. Dr. Djunjunan No. 839,-7.802243,110.36588,SKU-B,Beverage,22,55000,1210000,26.4
ORD000774,2026-02-03,CUST08113,Cirebon,Gg. Rajawali Timur No. 327,-6.729915,108.519857,SKU-A,Powder,23,25000,575000,11.5
ORD000775,2026-03-08,CUST18619,Semarang,Gang Kutisari Selatan No. 10,-6.917951,110.42913,SKU-A,Powder,27,25000,675000,13.5
ORD000776,2025-12-26,CUST14400,Jakarta,Gang Ronggowarsito No. 1,-6.23052,106.816751,SKU-C,Snack,26,15000,390000,5.2
ORD000777,2026-02-22,CUST22641,Semarang,Jl. Rajawali Barat No. 166,-6.932072,110.465574,SKU-B,Beverage,22,55000,1210000,26.4
ORD000778,2026-03-25,CUST23410,Bekasi,Jalan Rajawali Timur No. 28,-6.209406,106.931481,SKU-D,PersonalCare,12,85000,1020000,18.0
ORD000779,2026-04-19,CUST09864,Kediri,Gg. Setiabudhi No. 54,-7.873751,112.02245,SKU-A,Powder,15,25000,375000,7.5
ORD000780,2026-01-13,CUST19610,Depok,Jl. Yos Sudarso No. 0,-6.413131,106.815009,SKU-B,Beverage,19,55000,1045000,22.8
ORD000781,2026-01-27,CUST03052,Bandung,Jl. M.T Haryono No. 915,-6.943917,107.651788,SKU-D,PersonalCare,13,85000,1105000,19.5
ORD000782,2025-12-17,CUST07364,Jakarta,Jalan Abdul Muis No. 8,-6.251985,106.80857,SKU-D,PersonalCare,28,85000,2380000,42.0
ORD000783,2025-11-26,CUST16963,Bandung,Gang Asia Afrika No. 2,-6.915343,107.651072,SKU-D,PersonalCare,16,85000,1360000,24.0
ORD000784,2026-01-09,CUST10789,Depok,Gang Gedebage Selatan No. 3,-6.383688,106.812118,SKU-A,Powder,21,25000,525000,10.5
ORD000785,2025-11-26,CUST15772,Yogyakarta,Gg. Dr. Djunjunan No. 59,-7.837532,110.323297,SKU-A,Powder,22,25000,550000,11.0
ORD000786,2026-03-18,CUST27209,Malang,Jalan Indragiri No. 32,-7.94668,112.584566,SKU-B,Beverage,13,55000,715000,15.6
ORD000787,2026-02-24,CUST23108,Cirebon,Gg. Veteran No. 901,-6.726619,108.587571,SKU-D,PersonalCare,6,85000,510000,9.0
ORD000788,2025-11-18,CUST02894,Jakarta,Gg. Setiabudhi No. 74,-6.250112,106.885024,SKU-D,PersonalCare,9,85000,765000,13.5
ORD000789,2025-12-20,CUST05376,Malang,Jl. Sukabumi No. 0,-7.958722,112.603261,SKU-C,Snack,9,15000,135000,1.8
ORD000790,2026-04-06,CUST17977,Semarang,Gang Joyoboyo No. 6,-6.985769,110.442456,SKU-B,Beverage,10,55000,550000,12.0
ORD000791,2025-11-20,CUST20078,Bandung,Jalan Rajawali Timur No. 453,-6.88331,107.666076,SKU-A,Powder,16,25000,400000,8.0
ORD000792,2026-03-19,CUST26976,Yogyakarta,Gg. Gardujati No. 2,-7.836156,110.351895,SKU-C,Snack,21,15000,315000,4.2
ORD000793,2026-04-14,CUST09922,Tangerang,Gang Cihampelas No. 7,-6.178078,106.668043,SKU-D,PersonalCare,25,85000,2125000,37.5
ORD000794,2026-04-28,CUST14669,Kediri,Gg. Joyoboyo No. 031,-7.819311,112.033572,SKU-C,Snack,11,15000,165000,2.2
ORD000795,2025-12-25,CUST19408,Depok,Gg. Rajawali Timur No. 8,-6.407799,106.819207,SKU-C,Snack,26,15000,390000,5.2
ORD000796,2026-04-08,CUST11597,Jember,Gg. Cempaka No. 13,-8.199416,113.73291,SKU-D,PersonalCare,32,85000,2720000,48.0
ORD000797,2025-11-04,CUST06639,Kediri,Jalan Cikapayang No. 7,-7.896983,111.97845,SKU-D,PersonalCare,21,85000,1785000,31.5
ORD000798,2025-12-07,CUST18231,Bandung,Jl. Pasirkoja No. 68,-6.917747,107.628258,SKU-A,Powder,12,25000,300000,6.0
ORD000799,2025-11-06,CUST16808,Bandung,Jalan Kebonjati No. 2,-6.928842,107.639118,SKU-A,Powder,10,25000,250000,5.0
ORD000800,2026-02-23,CUST16387,Bandung,Jl. Cihampelas No. 804,-6.868113,107.603115,SKU-B,Beverage,6,55000,330000,7.2
ORD000801,2025-12-10,CUST21792,Jakarta,Gang Astana Anyar No. 02,-6.239243,106.871839,SKU-C,Snack,25,15000,375000,5.0
ORD000802,2026-03-29,CUST14193,Tangerang,Gg. Setiabudhi No. 6,-6.128472,106.592335,SKU-D,PersonalCare,21,85000,1785000,31.5
ORD000803,2026-02-07,CUST24980,Solo,Jl. Kapten Muslihat No. 34,-7.565896,110.829005,SKU-A,Powder,25,25000,625000,12.5
ORD000804,2026-03-16,CUST09311,Jakarta,Gang Moch. Ramdan No. 583,-6.202411,106.844383,SKU-B,Beverage,16,55000,880000,19.2
ORD000805,2025-12-08,CUST05770,Semarang,Jl. Surapati No. 638,-7.005299,110.442599,SKU-B,Beverage,7,55000,385000,8.4
ORD000806,2026-03-27,CUST13779,Solo,Gang Abdul Muis No. 57,-7.54001,110.778956,SKU-B,Beverage,19,55000,1045000,22.8
ORD000807,2026-03-24,CUST15324,Bandung,Gg. Cikutra Barat No. 001,-6.867935,107.631029,SKU-A,Powder,33,25000,825000,16.5
ORD000808,2026-02-20,CUST03176,Solo,Gg. Medokan Ayu No. 506,-7.580504,110.80779,SKU-C,Snack,7,15000,105000,1.4
ORD000809,2026-04-14,CUST07141,Jakarta,Jl. Stasiun Wonokromo No. 732,-6.250683,106.854095,SKU-B,Beverage,42,55000,2310000,50.4
ORD000810,2025-11-11,CUST09124,Jember,Gang Wonoayu No. 4,-8.136857,113.705059,SKU-C,Snack,18,15000,270000,3.6
ORD000811,2026-03-24,CUST15890,Yogyakarta,Gg. Ronggowarsito No. 2,-7.833931,110.360955,SKU-A,Powder,11,25000,275000,5.5
ORD000812,2025-12-02,CUST19198,Jakarta,Gg. Sukajadi No. 0,-6.202763,106.870442,SKU-A,Powder,18,25000,450000,9.0
ORD000813,2026-03-21,CUST08810,Serang,Jalan Soekarno Hatta No. 521,-6.07168,106.189667,SKU-B,Beverage,24,55000,1320000,28.8
ORD000814,2026-04-26,CUST03423,Yogyakarta,Gang Ciwastra No. 8,-7.844122,110.346483,SKU-B,Beverage,30,55000,1650000,36.0
ORD000815,2026-01-02,CUST11989,Semarang,Jl. Asia Afrika No. 5,-6.938323,110.392023,SKU-D,PersonalCare,21,85000,1785000,31.5
ORD000816,2026-01-17,CUST13649,Surabaya,Jalan Dr. Djunjunan No. 89,-7.219741,112.774234,SKU-C,Snack,22,15000,330000,4.4
ORD000817,2026-01-11,CUST22295,Jakarta,Jl. Rumah Sakit No. 276,-6.197192,106.889116,SKU-B,Beverage,6,55000,330000,7.2
ORD000818,2026-02-10,CUST06332,Surabaya,Jl. Ir. H. Djuanda No. 94,-7.305048,112.758888,SKU-B,Beverage,19,55000,1045000,22.8
ORD000819,2025-12-17,CUST17646,Bandung,Gang Ahmad Yani No. 7,-6.917665,107.622962,SKU-C,Snack,11,15000,165000,2.2
ORD000820,2026-03-20,CUST29313,Solo,Gg. Suryakencana No. 428,-7.600588,110.834271,SKU-A,Powder,11,25000,275000,5.5
ORD000821,2026-03-21,CUST16399,Yogyakarta,Jl. Sukajadi No. 370,-7.835958,110.400648,SKU-B,Beverage,15,55000,825000,18.0
ORD000822,2025-11-17,CUST29511,Cirebon,Jl. Jend. A. Yani No. 2,-6.746627,108.517857,SKU-B,Beverage,14,55000,770000,16.8
ORD000823,2025-12-19,CUST19368,Semarang,Jl. Sukabumi No. 547,-6.942255,110.430994,SKU-C,Snack,23,15000,345000,4.6
ORD000824,2026-01-06,CUST26128,Surabaya,Gg. Merdeka No. 9,-7.209574,112.788185,SKU-B,Beverage,18,55000,990000,21.6
ORD000825,2026-02-24,CUST25280,Malang,Jalan Jakarta No. 91,-7.923561,112.594702,SKU-B,Beverage,26,55000,1430000,31.2
ORD000826,2025-12-27,CUST24736,Jakarta,Gang Gardujati No. 104,-6.235513,106.829211,SKU-B,Beverage,6,55000,330000,7.2
ORD000827,2026-02-15,CUST18827,Bandung,Jalan Dr. Djunjunan No. 3,-6.913232,107.5692,SKU-C,Snack,10,15000,150000,2.0
ORD000828,2025-11-29,CUST22983,Jakarta,Gg. Abdul Muis No. 671,-6.212639,106.871567,SKU-A,Powder,26,25000,650000,13.0
ORD000829,2025-11-24,CUST14282,Jakarta,Gang Gardujati No. 1,-6.170571,106.827076,SKU-C,Snack,18,15000,270000,3.6
ORD000830,2026-03-08,CUST16584,Solo,Gang Dipatiukur No. 29,-7.532739,110.857273,SKU-D,PersonalCare,39,85000,3315000,58.5
ORD000831,2026-02-20,CUST19723,Surabaya,Jl. Pacuan Kuda No. 41,-7.243852,112.702552,SKU-D,PersonalCare,12,85000,1020000,18.0
